[
  {
    "id": "1",
    "name": "르하임 스터디카페 아라점",
    "category": "교육",
    "region": "아라동",
    "address": "제주 제주시 중앙로 558 2층",
    "description": "100시간 구매시+50시간/ 4주기간 구매시+7일",
    "image": "",
    "latitude": "33.4738219",
    "longitude": "126.5453467"
  },
  {
    "id": "2",
    "name": "청담 스터디카페 제주 외도",
    "category": "교육",
    "region": "외도",
    "address": "제주 제주시 절물1길 39 3층",
    "description": "기간권 이용 시 10% 할인",
    "image": "",
    "latitude": "33.4894176",
    "longitude": "126.4317388"
  },
  {
    "id": "3",
    "name": "FC오름 풋살트레이닝센터",
    "category": "레저/스포츠",
    "region": "노형",
    "address": "제주 제주시 노형동 3107",
    "description": "10% 할인",
    "image": "",
    "latitude": "33.4800813",
    "longitude": "126.4649952"
  },
  {
    "id": "4",
    "name": "HJ 테니스 아카데미",
    "category": "레저/스포츠",
    "region": "화북",
    "address": "제주 제주시 일주동로 96-1",
    "description": "학생레슨&대관시 10% 할인",
    "image": "",
    "latitude": "33.5145751",
    "longitude": "126.5573961"
  },
  {
    "id": "5",
    "name": "K탁구클럽",
    "category": "레저/스포츠",
    "region": "이도이동",
    "address": "제주 제주시 구남로 55 3층",
    "description": "무료레슨 제외 만 원 할인",
    "image": "",
    "latitude": "33.4914948",
    "longitude": "126.5354451"
  },
  {
    "id": "6",
    "name": "stg 풋살팀",
    "category": "레저/스포츠",
    "region": "용담",
    "address": "제주 제주시 용담 2동 919-3",
    "description": "재학생 야외 풋살장 무료 이용(관리비 별도), 팀 등록 시 20% 할인",
    "image": "",
    "latitude": "33.5084457",
    "longitude": "126.4990864"
  },
  {
    "id": "7",
    "name": "국제리더스클럽",
    "category": "레저/스포츠",
    "region": "조천",
    "address": "제주 제주시 조천읍 조함해안로 321-21 국제리더스클럽",
    "description": "비용 15% 할인 몽골여행 시 기념품 제공",
    "image": "",
    "latitude": "33.5514426",
    "longitude": "126.6527137"
  },
  {
    "id": "8",
    "name": "다올풋살장",
    "category": "레저/스포츠",
    "region": "월평",
    "address": "제주 제주시 월평8길 116-71",
    "description": "1만원 할인, 주말 18시 이전 이용시 2만원 할인",
    "image": "",
    "latitude": "33.4622396",
    "longitude": "126.5789298"
  },
  {
    "id": "9",
    "name": "락온MMA 팀락온 아라관",
    "category": "레저/스포츠",
    "region": "아라일동",
    "address": "제주 제주시 중앙로 536 2층",
    "description": "3개월 등록시 도복 무료 + 레쉬가드 무료 (재고 소진 전까지) \n+ 머그컵 무료(재고 소진 전 까지) + 친구와 함께 등록 시 각 2주 무료 연장",
    "image": "",
    "latitude": "33.4753954",
    "longitude": "126.5447686"
  },
  {
    "id": "10",
    "name": "리까 노형점",
    "category": "레저/스포츠",
    "region": "노형",
    "address": "제주 제주시 남녕로 39 지하1층",
    "description": "신규 등록 시 30% 할인, 재등록 시 1개월 5일 추가, 3개월 10일 추가",
    "image": "",
    "latitude": "33.4909133",
    "longitude": "126.4802837"
  },
  {
    "id": "11",
    "name": "복싱 마스터 애월",
    "category": "레저/스포츠",
    "region": "애월",
    "address": "제주 제주시 애월읍 하귀9길 11 201호",
    "description": "재학생 10% 할인, 글러브 및 붕대 등 운동용품 제공",
    "image": "",
    "latitude": "33.4859224",
    "longitude": "126.4154993"
  },
  {
    "id": "12",
    "name": "볼링앤와인갤러리",
    "category": "레저/스포츠",
    "region": "아라일동",
    "address": "제주 제주시 구산로 4 1층",
    "description": "볼링장 예약 후 현금 결제 시 체험비용 20% 할인",
    "image": "",
    "latitude": "33.4838697",
    "longitude": "126.5358765"
  },
  {
    "id": "13",
    "name": "스캠프짐 노형점",
    "category": "레저/스포츠",
    "region": "노형",
    "address": "제주 제주시 한라대학로 17 4층 팀HJ 스캠프짐 노형점",
    "description": "3개월 등록 시 10% 할인",
    "image": "",
    "latitude": "33.479699",
    "longitude": "126.4738616"
  },
  {
    "id": "14",
    "name": "스캠프짐 아라점",
    "category": "레저/스포츠",
    "region": "아라일동",
    "address": "제주 제주시 인다6길 54-2 2층",
    "description": "3개월 등록 시 10% 할인",
    "image": "",
    "latitude": "33.474793",
    "longitude": "126.5485727"
  },
  {
    "id": "15",
    "name": "오아시스 풋살파크",
    "category": "레저/스포츠",
    "region": "삼화",
    "address": "제주 제주시 용강6길 124 오아시스풋살파크",
    "description": "정상가에서 5000원 할인",
    "image": "",
    "latitude": "33.4681817",
    "longitude": "126.5917027"
  },
  {
    "id": "16",
    "name": "올레짐 피트니스",
    "category": "레저/스포츠",
    "region": "이도이동",
    "address": "제주 제주시 신설로2길 13 1층",
    "description": "3개월 13만원 (운동복 포함)",
    "image": "",
    "latitude": "33.4949115",
    "longitude": "126.542409"
  },
  {
    "id": "17",
    "name": "요넥스 나이스민턴",
    "category": "레저/스포츠",
    "region": "노형",
    "address": "제주 제주시 진군길 1-6 나이스민턴",
    "description": "택가에 20% 할인(셔틀콕 제외)",
    "image": "",
    "latitude": "33.4807157",
    "longitude": "126.4810711"
  },
  {
    "id": "18",
    "name": "이호서프",
    "category": "레저/스포츠",
    "region": "도두",
    "address": "제주 제주시 테우해안로 172-5 이호서프 바닷가쪽",
    "description": "강습+슈트 만원 할인",
    "image": "",
    "latitude": "33.4967964",
    "longitude": "126.4527293"
  },
  {
    "id": "19",
    "name": "제주라인스쿠터",
    "category": "레저/스포츠",
    "region": "삼도이동",
    "address": "제주 제주시 용마로 28 1층 제주라인스쿠터",
    "description": "부가용품 제공 및 연료비 5000원 지원",
    "image": "",
    "latitude": "33.5154688",
    "longitude": "126.5063757"
  },
  {
    "id": "20",
    "name": "제주핀서프",
    "category": "레저/스포츠",
    "region": "구좌",
    "address": "제주 제주시 구좌읍 해맞이해안로 472-2 1층",
    "description": "상품 10% 할인",
    "image": "",
    "latitude": "33.5290971",
    "longitude": "126.8463777"
  },
  {
    "id": "21",
    "name": "주짓수월드 연동점",
    "category": "레저/스포츠",
    "region": "연동",
    "address": "제주 제주시 국기로 7 3층",
    "description": "2달 등록시 10% 할인 + 입관비 면제, 3달 등록 시 3만원 금액 할인 + 입관비무료",
    "image": "",
    "latitude": "33.4811456",
    "longitude": "126.4900479"
  },
  {
    "id": "22",
    "name": "짐크루",
    "category": "레저/스포츠",
    "region": "연동",
    "address": "제주 제주시 연화중길 11 지하층",
    "description": "10,000씩 할인",
    "image": "",
    "latitude": "33.4778541",
    "longitude": "126.4888555"
  },
  {
    "id": "23",
    "name": "킹스복싱",
    "category": "레저/스포츠",
    "region": "연동",
    "address": "제주 제주시 신광로 48 3층",
    "description": "20%할인",
    "image": "",
    "latitude": "33.4877834",
    "longitude": "126.489806"
  },
  {
    "id": "24",
    "name": "킹스짐",
    "category": "레저/스포츠",
    "region": "연동",
    "address": "제주 제주시 신광로 47 3층",
    "description": "회원권 20% 할인",
    "image": "",
    "latitude": "33.4877703",
    "longitude": "126.4902901"
  },
  {
    "id": "25",
    "name": "태성 풋살장",
    "category": "레저/스포츠",
    "region": "서귀포",
    "address": "제주 서귀포시 남원읍 하례망장포로26번길 61-4",
    "description": "10% 할인",
    "image": "",
    "latitude": "33.2628037",
    "longitude": "126.6313262"
  },
  {
    "id": "26",
    "name": "팀 일도 킥복싱멀티짐",
    "category": "레저/스포츠",
    "region": "이도이동",
    "address": "제주 제주시 광양9길 41 탑마트2층",
    "description": "한번 등록으로 킥복싱 주짓수 이용 가능 월 15만원",
    "image": "",
    "latitude": "33.501477",
    "longitude": "126.5338722"
  },
  {
    "id": "27",
    "name": "하도카약",
    "category": "레저/스포츠",
    "region": "구좌읍",
    "address": "제주 제주시 구좌읍 해맞이해안로 1950 하도리43-4",
    "description": "30% 할인",
    "image": "",
    "latitude": "33.5151732",
    "longitude": "126.9008877"
  },
  {
    "id": "28",
    "name": "훈골프 아카데미",
    "category": "레저/스포츠",
    "region": "이도이동",
    "address": "제주 제주시 연신로 85 3층",
    "description": "10% 할인",
    "image": "",
    "latitude": "33.4942988",
    "longitude": "126.5491034"
  },
  {
    "id": "29",
    "name": "WISE 퍼스널컬러",
    "category": "문화생활/복지",
    "region": "이도이동",
    "address": "제주 제주시 남광로4길 15 1층",
    "description": "20% 할인",
    "image": "",
    "latitude": "33.4921071",
    "longitude": "126.5397747"
  },
  {
    "id": "30",
    "name": "㈜제주해양관광,성산포유람선",
    "category": "문화생활/복지",
    "region": "서귀포",
    "address": "제주 서귀포시 성산읍 성산등용로 130-21 1층(성산포종합여객터미널)",
    "description": "제주대 학생 본인한정 도민가에서 2500원 할인제공 (16000원)",
    "image": "",
    "latitude": "33.4728912",
    "longitude": "126.9346052"
  },
  {
    "id": "31",
    "name": "가든피오니플라워",
    "category": "문화생활/복지",
    "region": "이도이동",
    "address": "제주 제주시 승천로 89 카페굿모닝 안쪽",
    "description": "3만원 이상 구매시 꽃 한송이 증정",
    "image": "",
    "latitude": "33.4912329",
    "longitude": "126.5441749"
  },
  {
    "id": "32",
    "name": "감귤카트",
    "category": "문화생활/복지",
    "region": "서귀포",
    "address": "제주 서귀포시 중문관광로 42 감귤카트(맥도날드 안쪽)",
    "description": "55% 할인",
    "image": "",
    "latitude": "33.2549444",
    "longitude": "126.4078378"
  },
  {
    "id": "33",
    "name": "경희대 스포츠 클리닉",
    "category": "문화생활/복지",
    "region": "아라일동",
    "address": "제주 제주시 중앙로 587 2층 경희대스포츠클리닉",
    "description": "1개월 6만원으로 이용 가능, 3개월 15만원 이용 가능",
    "image": "",
    "latitude": "33.4709247",
    "longitude": "126.5459776"
  },
  {
    "id": "34",
    "name": "고수의 운전면허(HKQ)",
    "category": "문화생활/복지",
    "region": "이도일동",
    "address": "제주 제주시 서광로 291 1층 고수의 운전면허",
    "description": "제주대학교 재학생 이용권 10% 할인",
    "image": "",
    "latitude": "33.5006572",
    "longitude": "126.5275683"
  },
  {
    "id": "35",
    "name": "그랜드 타이어",
    "category": "문화생활/복지",
    "region": "노형",
    "address": "제주 제주시 연삼로 88 그랜드타이어 제주지점",
    "description": "타이어 25% ~ 50% 할인",
    "image": "",
    "latitude": "33.493239",
    "longitude": "126.5017131"
  },
  {
    "id": "36",
    "name": "그램 필라테스 노형점",
    "category": "문화생활/복지",
    "region": "노형",
    "address": "제주 제주시 노형로 367 3F",
    "description": "그룹수업 8회 +1회 16회+2회 24회 +3 회 48회 +4회",
    "image": "",
    "latitude": "33.48343",
    "longitude": "126.4752549"
  },
  {
    "id": "37",
    "name": "그램 필라테스 아라점",
    "category": "문화생활/복지",
    "region": "아라동",
    "address": "제주 제주시 아봉로 56 2F",
    "description": "그룹수업 8회 +1회 16회+2회 24회 +3 회 48회 +4회",
    "image": "",
    "latitude": "33.4775602",
    "longitude": "126.5496088"
  },
  {
    "id": "38",
    "name": "나무섬스튜디오",
    "category": "문화생활/복지",
    "region": "서귀포",
    "address": "제주 서귀포시 일주동로 8600 나무섬스튜디오",
    "description": "증명사진 10% 할인",
    "image": "",
    "latitude": "33.2548545",
    "longitude": "126.569451"
  },
  {
    "id": "39",
    "name": "녕녕",
    "category": "문화생활/복지",
    "region": "도남동",
    "address": "제주 제주시 도남로7길 29 1층",
    "description": "2인 이상 방문 시 20% 할인",
    "image": "",
    "latitude": "33.4977576",
    "longitude": "126.5272316"
  },
  {
    "id": "40",
    "name": "도치돌알파카목장",
    "category": "문화생활/복지",
    "region": "애월읍",
    "address": "제주 제주시 애월읍 도치돌길 303 도치돌목장",
    "description": "입장권 10% 할인 + 당근 1컵 제공",
    "image": "",
    "latitude": "33.4099012",
    "longitude": "126.3667667"
  },
  {
    "id": "41",
    "name": "디디벨플라워(노형점)",
    "category": "문화생활/복지",
    "region": "노형",
    "address": "제주 제주시 노형7길 7 1층",
    "description": "5만원 이하 5%, 5만원 이상 10%",
    "image": "",
    "latitude": "33.4806007",
    "longitude": "126.476477"
  },
  {
    "id": "42",
    "name": "린플라워",
    "category": "문화생활/복지",
    "region": "이도이동",
    "address": "제주 제주시 구남동1길 10 1층",
    "description": "꽃 구입 시 10% 할인(수업지도 제외)",
    "image": "",
    "latitude": "33.4922431",
    "longitude": "126.539699"
  },
  {
    "id": "43",
    "name": "모던 필라테스 아라점",
    "category": "문화생활/복지",
    "region": "아라일동",
    "address": "제주 제주시 중앙로 558 3층",
    "description": "기본 할인 혜택에서 추가 5% 할인",
    "image": "",
    "latitude": "33.4738219",
    "longitude": "126.5453467"
  },
  {
    "id": "44",
    "name": "몸냥공작소",
    "category": "문화생활/복지",
    "region": "애월",
    "address": "제주 제주시 애월읍 유수암리 2475-1",
    "description": "와펜 체험시 와펜 1개 무료 증정",
    "image": "",
    "latitude": "33.4310508",
    "longitude": "126.397398"
  },
  {
    "id": "45",
    "name": "묘랑묘다 미술공방",
    "category": "문화생활/복지",
    "region": "노형",
    "address": "제주 제주시 수덕11길 1 1층 코너",
    "description": "오일파스텔 원데이(a4)\n1인 35000원 -> 32000원\n 2인 70000원 -> 60000원\n3인 105000원 -> 81000원",
    "image": "",
    "latitude": "33.4880031",
    "longitude": "126.4759714"
  },
  {
    "id": "46",
    "name": "북카름",
    "category": "문화생활/복지",
    "region": "조천",
    "address": "제주 제주시 조천읍 북촌9길 17 북카름",
    "description": "도서 구매 시 10% 할인",
    "image": "",
    "latitude": "33.549275",
    "longitude": "126.6944288"
  },
  {
    "id": "47",
    "name": "쁘램요가",
    "category": "문화생활/복지",
    "region": "연동",
    "address": "제주 제주시 연북로 88 3층",
    "description": "1+1 이벤트 (한명 등록시 한명 무료)",
    "image": "",
    "latitude": "33.4815136",
    "longitude": "126.4906401"
  },
  {
    "id": "48",
    "name": "사랑이야기스튜디오",
    "category": "문화생활/복지",
    "region": "이도이동",
    "address": "제주 제주시 고마로 148 대림빌딩 2층",
    "description": "증명 사진 １０%、 취업사진 １０%、\n가족사진 １０%、 우정사진 １０% 할인",
    "image": "",
    "latitude": "33.5014815",
    "longitude": "126.5430532"
  },
  {
    "id": "49",
    "name": "삼차 노래주점",
    "category": "문화생활/복지",
    "region": "시청",
    "address": "제주 제주시 신성로13길 14",
    "description": "음료제공, 현금결제시 5%할인",
    "image": "",
    "latitude": "33.4989316",
    "longitude": "126.5293669"
  },
  {
    "id": "50",
    "name": "세이지룸",
    "category": "문화생활/복지",
    "region": "노형",
    "address": "제주 제주시 연동4길 28-8 다온빌 1층",
    "description": "원데이 클래스 10% 할인, 제품 구매 10%할인",
    "image": "",
    "latitude": "33.483562",
    "longitude": "126.4872534"
  },
  {
    "id": "51",
    "name": "스마일레인보우통신",
    "category": "문화생활/복지",
    "region": "서귀포",
    "address": "제주 서귀포시 표선면 표선동서로 244",
    "description": "핸드폰 구입 시 케이스,필름,보조배터리 증정",
    "image": "",
    "latitude": "33.3256018",
    "longitude": "126.8327029"
  },
  {
    "id": "52",
    "name": "스튜디오 릴로그",
    "category": "문화생활/복지",
    "region": "이도이동",
    "address": "제주 제주시 고산동산6길 4 2층",
    "description": "캠코더 혹은 디지털 카메라 무료 제공",
    "image": "",
    "latitude": "33.4950184",
    "longitude": "126.5325593"
  },
  {
    "id": "53",
    "name": "스트라이크 볼링장",
    "category": "문화생활/복지",
    "region": "이도이동",
    "address": "제주 제주시 남광로 10",
    "description": "평일/주말 오전시간( ~오후 6시 전) :신발 대여료 무료(2000원) 평일/주말 오후 일반 요금 대비 500할인",
    "image": "",
    "latitude": "33.4922677",
    "longitude": "126.5376385"
  },
  {
    "id": "54",
    "name": "신동아문구 시청점",
    "category": "문화생활/복지",
    "region": "시청",
    "address": "제주 제주시 중앙로 241 1층 신동아문구",
    "description": "10% 할인",
    "image": "",
    "latitude": "33.4983998",
    "longitude": "126.5310164"
  },
  {
    "id": "55",
    "name": "아라서점",
    "category": "문화생활/복지",
    "region": "아라일동",
    "address": "제주 제주시 중앙로 355",
    "description": "10프로 할인(전공서적, 만화 제외)",
    "image": "",
    "latitude": "33.4901963",
    "longitude": "126.5385677"
  },
  {
    "id": "56",
    "name": "아일랜드 터프팅",
    "category": "문화생활/복지",
    "region": "시청",
    "address": "제주 제주시 동고산로 1 3층",
    "description": "원데이클래스 10% 할인",
    "image": "",
    "latitude": "33.498038",
    "longitude": "126.5314367"
  },
  {
    "id": "57",
    "name": "아케이드",
    "category": "문화생활/복지",
    "region": "시청",
    "address": "제주 제주시 신성로13길 20 지하층",
    "description": "10% 할인",
    "image": "",
    "latitude": "33.4984453",
    "longitude": "126.5296509"
  },
  {
    "id": "58",
    "name": "아틀리에 혼디",
    "category": "문화생활/복지",
    "region": "노형",
    "address": "제주 제주시 월랑로8길 1 6층",
    "description": "전클래스 15% 할인",
    "image": "",
    "latitude": "33.4887906",
    "longitude": "126.4765748"
  },
  {
    "id": "59",
    "name": "아하 필라테스 & 발레",
    "category": "문화생활/복지",
    "region": "삼화",
    "address": "제주 제주시 건주로 43 4층",
    "description": "그룹수업 8회 +1회 16회+2회 24회 +3 회",
    "image": "",
    "latitude": "33.5155705",
    "longitude": "126.58101"
  },
  {
    "id": "60",
    "name": "에스엠볼링장",
    "category": "문화생활/복지",
    "region": "노형",
    "address": "제주시 노형11길 6",
    "description": "대학생 요금 유지, 대화료(신발대여) 면제",
    "image": "",
    "latitude": "33.4845575",
    "longitude": "126.4781064"
  },
  {
    "id": "61",
    "name": "열대과일농장 유진팡",
    "category": "문화생활/복지",
    "region": "서귀포 남원읍",
    "address": "제주 서귀포시 남원읍 원님로399번길 31-7",
    "description": "입장료 2,000원 할인",
    "image": "",
    "latitude": "33.33956480000001",
    "longitude": "126.7426623"
  },
  {
    "id": "62",
    "name": "용담 애견샵",
    "category": "문화생활/복지",
    "region": "용담",
    "address": "제주 제주시 용담로 84",
    "description": "애견 용품 １０% 할인",
    "image": "",
    "latitude": "33.5122458",
    "longitude": "126.5115828"
  },
  {
    "id": "63",
    "name": "우디버디",
    "category": "문화생활/복지",
    "region": "삼도",
    "address": "제주 제주시 북성로 31 1층 우디버디",
    "description": "2만원 구매시 10% 할인",
    "image": "",
    "latitude": "33.5156677",
    "longitude": "126.5212036"
  },
  {
    "id": "64",
    "name": "워터라이프",
    "category": "문화생활/복지",
    "region": "서귀포",
    "address": "제주 서귀포시 문부로11번길 16-1 1층 워터라이프",
    "description": "음료 10% 할인",
    "image": "",
    "latitude": "33.2535356",
    "longitude": "126.5691604"
  },
  {
    "id": "65",
    "name": "위아포트",
    "category": "문화생활/복지",
    "region": "시청",
    "address": "제주 제주시 중앙로 248 4층",
    "description": "한달 20% 할인",
    "image": "",
    "latitude": "33.4977418",
    "longitude": "126.5308575"
  },
  {
    "id": "66",
    "name": "이도클럽",
    "category": "문화생활/복지",
    "region": "이도이동",
    "address": "제주 제주시 신설로7길 25 3층",
    "description": "20% 할인",
    "image": "",
    "latitude": "33.4938562",
    "longitude": "126.5446294"
  },
  {
    "id": "67",
    "name": "인천문화당 이도점",
    "category": "문화생활/복지",
    "region": "이도이동",
    "address": "제주 제주시 연북로 549 인천문화당 이도점",
    "description": "비할인제품 25% 할인",
    "image": "",
    "latitude": "33.4864898",
    "longitude": "126.5381743"
  },
  {
    "id": "68",
    "name": "전자랜드 제주점",
    "category": "문화생활/복지",
    "region": "삼도",
    "address": "제주 제주시 서사로 32",
    "description": "제대학생 방문시 상담 후 할인 혜택 결정",
    "image": "",
    "latitude": "33.5094686",
    "longitude": "126.5196001"
  },
  {
    "id": "69",
    "name": "점빵사이",
    "category": "문화생활/복지",
    "region": "서귀포",
    "address": "제주 서귀포시 이중섭로 23 .",
    "description": "총구매금액의 5% 할인",
    "image": "",
    "latitude": "33.2460866",
    "longitude": "126.5642429"
  },
  {
    "id": "70",
    "name": "제리스토리",
    "category": "문화생활/복지",
    "region": "일도이동",
    "address": "제주 제주시 삼성로 106 1층",
    "description": "10% 할인 및 무료 배송",
    "image": "",
    "latitude": "33.5097159",
    "longitude": "126.5359105"
  },
  {
    "id": "71",
    "name": "제일스포츠종합광고타운",
    "category": "문화생활/복지",
    "region": "서귀포",
    "address": "제주특별자치도 서귀포시 동홍로 32",
    "description": "현수막 제작시 10% 할인 (제작만, 현수막 설치 x)",
    "image": "",
    "latitude": "33.2514607",
    "longitude": "126.5680217"
  },
  {
    "id": "72",
    "name": "제주별상점위드리하이",
    "category": "문화생활/복지",
    "region": "애월",
    "address": "제주 제주시 애월읍 애월로 128 1층 제주별상점",
    "description": "병뚜껑 체험 10% 할인(예약필수)",
    "image": "",
    "latitude": "33.4641552",
    "longitude": "126.3209228"
  },
  {
    "id": "73",
    "name": "제주스런",
    "category": "문화생활/복지",
    "region": "조천",
    "address": "제주 제주시 조천읍 대흘9길 35",
    "description": "기존 체험비 30000->25000 (제주대학교 학생증지참)-동반 1인까지 가능",
    "image": "",
    "latitude": "33.4958322",
    "longitude": "126.669431"
  },
  {
    "id": "74",
    "name": "제주악기",
    "category": "문화생활/복지",
    "region": "이도이동",
    "address": "제주 제주시 연삼로 386 1F",
    "description": "피아노,디지털피아노,통기타,악기스트링 외 10~15 % 할인",
    "image": "",
    "latitude": "33.4941006",
    "longitude": "126.5331125"
  },
  {
    "id": "75",
    "name": "제주홀릭뮤지엄",
    "category": "문화생활/복지",
    "region": "애월읍",
    "address": "제주 제주시 애월읍 평화로 2835 제주홀릭뮤지엄",
    "description": "일반 입장권 3,000원 할인",
    "image": "",
    "latitude": "33.4566113",
    "longitude": "126.4416832"
  },
  {
    "id": "76",
    "name": "중문승마공원",
    "category": "문화생활/복지",
    "region": "서귀포",
    "address": "제주 서귀포시 이어도로 244 제주하이랜드",
    "description": "해변올레길 코스 2인 체험시 당근바구니 서비스",
    "image": "",
    "latitude": "33.2423154",
    "longitude": "126.4455515"
  },
  {
    "id": "77",
    "name": "진 스튜디오",
    "category": "문화생활/복지",
    "region": "조천",
    "address": "제주 제주시 조천읍 신북로 138 102호 진 스튜디오",
    "description": "졸업생 포함 제주대학생 30% 할인",
    "image": "",
    "latitude": "33.5352127",
    "longitude": "126.6278649"
  },
  {
    "id": "78",
    "name": "책방왓",
    "category": "문화생활/복지",
    "region": "서귀포",
    "address": "제주 서귀포시 안덕면 화순로56번길 28",
    "description": "도서 구입 시 15% 할인, 기본 공간 이용 3시간 무료",
    "image": "",
    "latitude": "33.2494197",
    "longitude": "126.336274"
  },
  {
    "id": "79",
    "name": "초심 스터디 카페 삼화점",
    "category": "문화생활/복지",
    "region": "삼화",
    "address": "제주 제주시 건주로 27 광산빌딩 501호",
    "description": "모든 상품 30% 할인 1회 적용",
    "image": "",
    "latitude": "33.5171264",
    "longitude": "126.5813242"
  },
  {
    "id": "80",
    "name": "카프로",
    "category": "문화생활/복지",
    "region": "건입동",
    "address": "제주 제주시 남광로 220",
    "description": "30% 할인",
    "image": "",
    "latitude": "33.5039008",
    "longitude": "126.551968"
  },
  {
    "id": "81",
    "name": "크린토피아 아라점",
    "category": "문화생활/복지",
    "region": "아라일동",
    "address": "제주 제주시 인다6길 55",
    "description": "15% 할인",
    "image": "",
    "latitude": "33.4751986",
    "longitude": "126.5490448"
  },
  {
    "id": "82",
    "name": "템 스튜디오 노형점",
    "category": "문화생활/복지",
    "region": "노형",
    "address": "제주 제주시 달마루길 22 3층 템스튜디오 노형점",
    "description": "그룹 레슨 등록 시 15% 상시 할인, 1:1 또는 2:1 레슨 첫 등록시 10% 할인",
    "image": "",
    "latitude": "33.4899358",
    "longitude": "126.4738202"
  },
  {
    "id": "83",
    "name": "템 스튜디오 본점",
    "category": "문화생활/복지",
    "region": "노형",
    "address": "제주 제주시 원노형6길 29 4층, 템스튜디오",
    "description": "그룹레슨시 15%할인, 1:1,2:2등 개인레승 최초수강 시 10%할인(재등록은 불가)",
    "image": "",
    "latitude": "33.4834248",
    "longitude": "126.4829637"
  },
  {
    "id": "84",
    "name": "템 스튜디오 중앙로점",
    "category": "문화생활/복지",
    "region": "중앙로",
    "address": "제주 제주시 중앙로 52 2층,3층",
    "description": "그룹 레슨 등록 시 15% 상시 할인, 1:1 또는 2:1 레슨 첫 등록시 10% 할인",
    "image": "",
    "latitude": "33.5136289",
    "longitude": "126.524521"
  },
  {
    "id": "85",
    "name": "하늘 바다 필라테스",
    "category": "문화생활/복지",
    "region": "서귀포",
    "address": "제주 서귀포시 서호중앙로 55 유포리아산업지식센터 A동 908호",
    "description": "기존 8회 시 10% 할인, 16회 시 15% 할인, 24회 시 20% 할인에 추가 2회씩 제공",
    "image": "",
    "latitude": "33.25200480000001",
    "longitude": "126.5183408"
  },
  {
    "id": "86",
    "name": "하우스드 필라테스",
    "category": "문화생활/복지",
    "region": "아라일동",
    "address": "제주 제주시 아란13길 10 4층",
    "description": "제주대학교 신규 등록시 5% 추가 할인",
    "image": "",
    "latitude": "33.4691475",
    "longitude": "126.5464049"
  },
  {
    "id": "87",
    "name": "114 칼라 스튜디오",
    "category": "미용/뷰티/패션",
    "region": "연동",
    "address": "제주 제주시 과원북2길 50",
    "description": "원본 파일 전송, 추가 인화 2장 이상",
    "image": "",
    "latitude": "33.4787253",
    "longitude": "126.4877504"
  },
  {
    "id": "88",
    "name": "그랜패런츠",
    "category": "미용/뷰티/패션",
    "region": "일도일동",
    "address": "제주 제주시 칠성로길 36 1층",
    "description": "10% 할인",
    "image": "",
    "latitude": "33.5143446",
    "longitude": "126.5265656"
  },
  {
    "id": "89",
    "name": "금티지",
    "category": "미용/뷰티/패션",
    "region": "서귀포",
    "address": "제주 서귀포시 염돈로28번길 15-7 밭 창고",
    "description": "5000원 할인",
    "image": "",
    "latitude": "33.25362399999999",
    "longitude": "126.4957043"
  },
  {
    "id": "90",
    "name": "네일해나",
    "category": "미용/뷰티/패션",
    "region": "이도이동",
    "address": "제주 제주시 신성로13길 25-1 1층",
    "description": "3천원 할인 + 네이버 포토리뷰 5천원 할인 ( 중복적용가능, 케어제외 및 원컬러 시술 시 가능)",
    "image": "",
    "latitude": "33.4980467",
    "longitude": "126.5304078"
  },
  {
    "id": "91",
    "name": "눈사랑안경 신제주점",
    "category": "미용/뷰티/패션",
    "region": "연동",
    "address": "제주 제주시 연북로 42 1층",
    "description": "전 품목 구매 시 20% 할인",
    "image": "",
    "latitude": "33.4816388",
    "longitude": "126.4858535"
  },
  {
    "id": "92",
    "name": "다비치 안경 광양점",
    "category": "미용/뷰티/패션",
    "region": "시청",
    "address": "제주 제주시 서광로 300 다비치안경광양",
    "description": "렌즈제외 안경 구매 시 10% 할인(콘텍트 렌즈 포함)",
    "image": "",
    "latitude": "33.5003693",
    "longitude": "126.5283404"
  },
  {
    "id": "93",
    "name": "디테일 안경 제주점(detail)",
    "category": "미용/뷰티/패션",
    "region": "아라일동",
    "address": "제주 제주시 아란7길 10-1 1층 detail",
    "description": "안경, 안경렌즈, 선글라스 품목 10% 할인",
    "image": "",
    "latitude": "33.4746062",
    "longitude": "126.5443016"
  },
  {
    "id": "94",
    "name": "라라라",
    "category": "미용/뷰티/패션",
    "region": "시청",
    "address": "제주 제주시 신성로13길 16 1층상가 여성의류매장 라라라",
    "description": "카드 5%, 현금 10% 할인",
    "image": "",
    "latitude": "33.498715",
    "longitude": "126.5294978"
  },
  {
    "id": "95",
    "name": "뢰임안경",
    "category": "미용/뷰티/패션",
    "region": "이도이동",
    "address": "제주 제주시 중앙로 350 뢰임안경",
    "description": "20% 할인",
    "image": "",
    "latitude": "33.4903506",
    "longitude": "126.5375156"
  },
  {
    "id": "96",
    "name": "메종드옴므",
    "category": "미용/뷰티/패션",
    "region": "서귀포",
    "address": "제주 서귀포시 중정로62번길 1 메종드옴므",
    "description": "10% 할인",
    "image": "",
    "latitude": "33.2476671",
    "longitude": "126.5631364"
  },
  {
    "id": "97",
    "name": "미미빈티지",
    "category": "미용/뷰티/패션",
    "region": "애월",
    "address": "제주 제주시 애월읍 하귀로23길 8 1층 (빨간대문)",
    "description": "10% 할인, 5%적립, 동양타로 무료",
    "image": "",
    "latitude": "33.479743",
    "longitude": "126.4025971"
  },
  {
    "id": "98",
    "name": "베베뷰티",
    "category": "미용/뷰티/패션",
    "region": "일도일동",
    "address": "제주시 관덕로 15길 2 2층",
    "description": "케어제거x, 젤시술 시 15%",
    "image": "",
    "latitude": "33.5135237",
    "longitude": "126.5270625"
  },
  {
    "id": "99",
    "name": "쁘띠꾸아 제주아라(구 살롱에이)",
    "category": "미용/뷰티/패션",
    "region": "아라일동",
    "address": "제주 제주시 아란5길 19-3",
    "description": "커트 제외 10% 할인",
    "image": "",
    "latitude": "33.4751245",
    "longitude": "126.5441711"
  },
  {
    "id": "100",
    "name": "소모소빈티지샵",
    "category": "미용/뷰티/패션",
    "region": "삼도이동",
    "address": "제주 제주시 중앙로2길 21 1층",
    "description": "제주대학교 학생 전제품 5% 할인",
    "image": "",
    "latitude": "33.51691050000001",
    "longitude": "126.5226412"
  },
  {
    "id": "101",
    "name": "아이디어 안경원 구제주점",
    "category": "미용/뷰티/패션",
    "region": "이도이동",
    "address": "제주 제주시 중앙로 337 다우빌딩 1층",
    "description": "최종결제시 추가 10% 할인, 김서림 방지 안경클리너 제공",
    "image": "",
    "latitude": "33.4915399",
    "longitude": "126.5373076"
  },
  {
    "id": "102",
    "name": "아이젠트리 제주법원점",
    "category": "미용/뷰티/패션",
    "region": "이도이동",
    "address": "제주 제주시 중앙로 308 1층 아이젠트리 제주법원점",
    "description": "안경렌즈 10% 할인/콘텍트렌즈 케이스 증정",
    "image": "",
    "latitude": "33.4932338",
    "longitude": "126.5347568"
  },
  {
    "id": "103",
    "name": "안경집 서귀포올레시장앞점",
    "category": "미용/뷰티/패션",
    "region": "서귀포",
    "address": "제주 서귀포시 중앙로 41",
    "description": "10% 할인",
    "image": "",
    "latitude": "33.2483125",
    "longitude": "126.5615824"
  },
  {
    "id": "104",
    "name": "에끌로뷰티",
    "category": "미용/뷰티/패션",
    "region": "시청",
    "address": "제주 제주시 동광로4길 15 2층",
    "description": "관리 20% 할인",
    "image": "",
    "latitude": "33.5005623",
    "longitude": "126.5317813"
  },
  {
    "id": "105",
    "name": "영주미용뷰티학원",
    "category": "미용/뷰티/패션",
    "region": "이도이동",
    "address": "제주 제주시 연삼로 431 2층",
    "description": "20% 할인",
    "image": "",
    "latitude": "33.497059",
    "longitude": "126.5365893"
  },
  {
    "id": "106",
    "name": "우주안경",
    "category": "미용/뷰티/패션",
    "region": "일도이동",
    "address": "제주 제주시 천수로 53 수은빌딩 1층 우주안경",
    "description": "10% 할인",
    "image": "",
    "latitude": "33.5040538",
    "longitude": "126.5423206"
  },
  {
    "id": "107",
    "name": "윤슬로네일",
    "category": "미용/뷰티/패션",
    "region": "조천",
    "address": "제주 제주시 조천읍 신북로 138 행복하우스 2층(엘베이용시 1층 누르세요)",
    "description": "재학생 30% 할인 케어, 제거 제외",
    "image": "",
    "latitude": "33.5352127",
    "longitude": "126.6278649"
  },
  {
    "id": "108",
    "name": "으뜸플러스안경제주삼화점",
    "category": "미용/뷰티/패션",
    "region": "삼화",
    "address": "제주 제주시 건주로4길 6-8 2층 205호",
    "description": "안경 구매시 10% 할인",
    "image": "",
    "latitude": "33.5167891",
    "longitude": "126.5803047"
  },
  {
    "id": "109",
    "name": "재발견 상점",
    "category": "미용/뷰티/패션",
    "region": "서귀포",
    "address": "제주 서귀포시 태평로371번길 32 이중섭 거리",
    "description": "5% 할인",
    "image": "",
    "latitude": "33.2457797",
    "longitude": "126.5639597"
  },
  {
    "id": "110",
    "name": "지니스 안경 제주외도점",
    "category": "미용/뷰티/패션",
    "region": "공항연안권",
    "address": "제주 제주시 우정로 62-1 1층",
    "description": "안경태 59,000이상 구매시 블루라이트 차단 안경 렌즈 제공/  블루라이트 안경 렌즈 구매 시 1만원",
    "image": "",
    "latitude": "33.4872135",
    "longitude": "126.4307011"
  },
  {
    "id": "111",
    "name": "카리스제이 맞춤정장",
    "category": "미용/뷰티/패션",
    "region": "도남",
    "address": "제주 제주시 연북로 403 카리스제이",
    "description": "졸업생 20%할인 + 재학생 10% 할인 + 넥타이 증정(맞춤 정장 시)",
    "image": "",
    "latitude": "33.4810299",
    "longitude": "126.5246124"
  },
  {
    "id": "112",
    "name": "칸",
    "category": "미용/뷰티/패션",
    "region": "탑동",
    "address": "제주 제주시 관덕로15길 14 2층",
    "description": "정장 대여시 8만원, 구매시 23만원-양말, 넥타이 증정",
    "image": "",
    "latitude": "33.5145321",
    "longitude": "126.526804"
  },
  {
    "id": "113",
    "name": "캡퍼룸",
    "category": "미용/뷰티/패션",
    "region": "애월",
    "address": "제주 제주시 애월읍 광성로 68 1층",
    "description": "5% 할인",
    "image": "",
    "latitude": "33.4580727",
    "longitude": "126.4148754"
  },
  {
    "id": "114",
    "name": "크롬웰 안경제주점",
    "category": "미용/뷰티/패션",
    "region": "시청",
    "address": "제주 제주시 중앙로 206 1층 크롬웰안경",
    "description": "추가할인 15%, 콘텍트렌즈 제주 최저가, 원데이렌즈30p 15,000원",
    "image": "",
    "latitude": "33.500966",
    "longitude": "126.5287156"
  },
  {
    "id": "115",
    "name": "파가니니안경원 광양점",
    "category": "미용/뷰티/패션",
    "region": "이도이동",
    "address": "제주 제주시 서광로 298",
    "description": "전품목 30% 할인 (콘텍트랜즈 제외)",
    "image": "",
    "latitude": "33.5003072",
    "longitude": "126.5282704"
  },
  {
    "id": "116",
    "name": "프로디헤어 제주노형점",
    "category": "미용/뷰티/패션",
    "region": "노형",
    "address": "제주 제주시 한라대학로 37 재광빌딩 2층 프로디헤어",
    "description": "펌 / 염색 시술 10%할인",
    "image": "",
    "latitude": "33.4783004",
    "longitude": "126.4754592"
  },
  {
    "id": "117",
    "name": "플루즈(pelouse)",
    "category": "미용/뷰티/패션",
    "region": "이도이동",
    "address": "제주 제주시 서광로32길 42 1층",
    "description": "카드 결제시 5% 현금으로 결제시 10% 할인",
    "image": "",
    "latitude": "33.4972262",
    "longitude": "126.5298487"
  },
  {
    "id": "118",
    "name": "그림리조트",
    "category": "숙박",
    "region": "공항연안권",
    "address": "제주 제주시 서해안로 620-1 그림리조트",
    "description": "10% 할인",
    "image": "",
    "latitude": "33.5162335",
    "longitude": "126.5036173"
  },
  {
    "id": "119",
    "name": "도라미펜션",
    "category": "숙박",
    "region": "서귀포",
    "address": "제주 서귀포시 일주동로 8215 도라미펜션",
    "description": "10% 할인",
    "image": "",
    "latitude": "33.2601746",
    "longitude": "126.6096391"
  },
  {
    "id": "120",
    "name": "먼집",
    "category": "숙박",
    "region": "애월",
    "address": "제주특별자치도 제주시 한경면 일주서로 4117 용당리복지회관",
    "description": "숙박비 30% 할인",
    "image": "",
    "latitude": "33.3338331",
    "longitude": "126.1814014"
  },
  {
    "id": "121",
    "name": "서귀포펜션 모먼트빌리지",
    "category": "숙박",
    "region": "서귀포",
    "address": "제주 서귀포시 안덕면 사계로 187-3 서귀포펜션 모먼트빌리지",
    "description": "10% 할인",
    "image": "",
    "latitude": "33.2464607",
    "longitude": "126.3025716"
  },
  {
    "id": "122",
    "name": "제주 다차공간",
    "category": "숙박",
    "region": "서귀포",
    "address": "제주 서귀포시 성산읍 남산봉로 83-103 제주다차공간",
    "description": "바베큐 & 불멍 제공",
    "image": "",
    "latitude": "33.364867",
    "longitude": "126.8295429"
  },
  {
    "id": "123",
    "name": "제주애탐라",
    "category": "숙박",
    "region": "애월",
    "address": "제주 제주시 애월읍 고내북서길 11",
    "description": "3인까지 추가금액 x",
    "image": "",
    "latitude": "33.4663189",
    "longitude": "126.3331749"
  },
  {
    "id": "124",
    "name": "제주자연인글램핑",
    "category": "숙박",
    "region": "아라일동",
    "address": "제주 제주시 아란서길 110 B동 별관",
    "description": "제주대 학생증 지참시 현금 결제 10% 할인",
    "image": "",
    "latitude": "33.4687341",
    "longitude": "126.5394413"
  },
  {
    "id": "125",
    "name": "팀버하우스",
    "category": "숙박",
    "region": "애월",
    "address": "제주 제주시 애월읍 곽지7길 11",
    "description": "노래방/ 바베큐 무료, 비수기엔 15% 할인",
    "image": "",
    "latitude": "33.4509513",
    "longitude": "126.3078728"
  },
  {
    "id": "126",
    "name": "헤드홈탐라",
    "category": "숙박",
    "region": "애월",
    "address": "제주 제주시 애월읍 가문동상2길 32 1층, 2층",
    "description": "3인까지 추가금액 x",
    "image": "",
    "latitude": "33.4858317",
    "longitude": "126.390243"
  },
  {
    "id": "127",
    "name": "101동 파스타",
    "category": "음식점",
    "region": "이도이동",
    "address": "제주 제주시 박성내서길 12-7 1층",
    "description": "10% 할인",
    "image": "",
    "latitude": "33.4913189",
    "longitude": "126.5409254"
  },
  {
    "id": "128",
    "name": "1950김프로",
    "category": "음식점",
    "region": "서귀포",
    "address": "제주 서귀포시 홍중로 80",
    "description": "음료수 서비스",
    "image": "",
    "latitude": "33.2596238",
    "longitude": "126.5560605"
  },
  {
    "id": "129",
    "name": "1968 연희동",
    "category": "음식점",
    "region": "서귀포",
    "address": "제주 서귀포시 서문로29번길 7 1968연희동",
    "description": "전메뉴 10%할인 (탐나는전 & 현금 한정)",
    "image": "",
    "latitude": "33.2498137",
    "longitude": "126.5591026"
  },
  {
    "id": "130",
    "name": "88버거 본점",
    "category": "음식점",
    "region": "서귀포",
    "address": "제주 서귀포시 동문로 63",
    "description": "제주대 학생증 지참시 서비스음료(테이블당)",
    "image": "",
    "latitude": "33.2492776",
    "longitude": "126.567167"
  },
  {
    "id": "131",
    "name": "BHC 서귀 서홍점",
    "category": "음식점",
    "region": "서귀포",
    "address": "제주 서귀포시 홍중로 64-1",
    "description": "제주대 학생증 지참 시 음료 1개 서비스 제공",
    "image": "",
    "latitude": "33.2583926",
    "longitude": "126.5566895"
  },
  {
    "id": "132",
    "name": "갈치왕 성산점",
    "category": "음식점",
    "region": "서귀포",
    "address": "제주 서귀포시 성산읍 성산중앙로37번길 9 1층 갈치왕 성산점",
    "description": "학생증 소지 시 10% 할인",
    "image": "",
    "latitude": "33.4636761",
    "longitude": "126.9323329"
  },
  {
    "id": "133",
    "name": "고가촌",
    "category": "음식점",
    "region": "일도이동",
    "address": "제주 제주시 가령골길 24",
    "description": "테이블 당 음료수 한 개",
    "image": "",
    "latitude": "33.504164",
    "longitude": "126.5407802"
  },
  {
    "id": "134",
    "name": "고국수",
    "category": "음식점",
    "region": "용담이동",
    "address": "제주 제주시 용문로14길 4 1층 고국수 공항본점",
    "description": "10% 할인",
    "image": "",
    "latitude": "33.5063701",
    "longitude": "126.5092501"
  },
  {
    "id": "135",
    "name": "고기앞에 모두 평등하다",
    "category": "음식점",
    "region": "이도이동",
    "address": "제주 제주시 광양11길 18-1",
    "description": "계란후라이, 매실, 수제식혜, 공기밥 제공/ 소주 4,000원",
    "image": "",
    "latitude": "33.4997151",
    "longitude": "126.5320693"
  },
  {
    "id": "136",
    "name": "고요남",
    "category": "음식점",
    "region": "아라일동",
    "address": "제주 제주시 구남동8길 51 1층 고요남",
    "description": "3만원이상 주문시 5% 할인",
    "image": "",
    "latitude": "33.4855855",
    "longitude": "126.536003"
  },
  {
    "id": "137",
    "name": "곱분이 곱창",
    "category": "음식점",
    "region": "시청",
    "address": "제주 제주시 서광로32길 17 1층",
    "description": "볶음밥 1인분 제공",
    "image": "",
    "latitude": "33.4992553",
    "longitude": "126.5286746"
  },
  {
    "id": "138",
    "name": "구어라조연탄",
    "category": "음식점",
    "region": "시청",
    "address": "제주 제주시 서광로32길 28",
    "description": "소주 2천원 할인",
    "image": "",
    "latitude": "33.4982656",
    "longitude": "126.5290744"
  },
  {
    "id": "139",
    "name": "귀한족발 제주 일도점",
    "category": "음식점",
    "region": "일도이동",
    "address": "제주 제주시 고마로 94 101호",
    "description": "테이블 당 음료 한 개",
    "image": "",
    "latitude": "33.5058826",
    "longitude": "126.5405835"
  },
  {
    "id": "140",
    "name": "까망돼지 서귀포점",
    "category": "음식점",
    "region": "서귀포",
    "address": "제주 서귀포시 일주동로 8524 1층까망돼지",
    "description": "5% 할인",
    "image": "",
    "latitude": "33.2551118",
    "longitude": "126.5775676"
  },
  {
    "id": "141",
    "name": "까망돼지 중문점",
    "category": "음식점",
    "region": "서귀포",
    "address": "제주 서귀포시 색달중앙로 21 여미지하우스 1층 까망돼지 본점",
    "description": "5% 할인",
    "image": "",
    "latitude": "33.2574019",
    "longitude": "126.4134702"
  },
  {
    "id": "142",
    "name": "꼬꼬앤쿡",
    "category": "음식점",
    "region": "삼도",
    "address": "제주 제주시 서광로 223 1츠",
    "description": "결제금액 10% 할인",
    "image": "",
    "latitude": "33.5000828",
    "longitude": "126.520428"
  },
  {
    "id": "143",
    "name": "꼼닭",
    "category": "음식점",
    "region": "연동",
    "address": "제주 제주시 은남길 33 1층",
    "description": "테이블 1개당 사이드메뉴 1개 제공",
    "image": "",
    "latitude": "33.4868836",
    "longitude": "126.4958759"
  },
  {
    "id": "144",
    "name": "꾸바꾸바",
    "category": "음식점",
    "region": "서귀포",
    "address": "제주 서귀포시 중앙로 148",
    "description": "음료수 제공",
    "image": "",
    "latitude": "33.2578959",
    "longitude": "126.5604997"
  },
  {
    "id": "145",
    "name": "남매네 왕갈치",
    "category": "음식점",
    "region": "서귀포 서귀동",
    "address": "제주 서귀포시 중정로73번길 20 지하 1층 남매네왕갈치",
    "description": "10% 할인",
    "image": "",
    "latitude": "33.249893",
    "longitude": "126.5640609"
  },
  {
    "id": "146",
    "name": "남문숯불바베큐앤치킨 월랑점",
    "category": "음식점",
    "region": "노형",
    "address": "제주 제주시 월랑로4길 19",
    "description": "4만원 이상 주문시 10% 할인 이하 주문시 음료제공",
    "image": "",
    "latitude": "33.4888259",
    "longitude": "126.4791694"
  },
  {
    "id": "147",
    "name": "낭푼이 닭 한마리",
    "category": "음식점",
    "region": "시청",
    "address": "제주 제주시 광양13길 6-4",
    "description": "테이블 당 2000원 상당의 음료 및 사리(선택)",
    "image": "",
    "latitude": "33.498455",
    "longitude": "126.5313313"
  },
  {
    "id": "148",
    "name": "냄비에 퐁닭",
    "category": "음식점",
    "region": "시청",
    "address": "제주 제주시 서광로32길 26-5",
    "description": "현금 결제 3인 이상 테이블당 음료 한 캔",
    "image": "",
    "latitude": "33.4981556",
    "longitude": "126.5288054"
  },
  {
    "id": "149",
    "name": "네네치킨 조천함덕점",
    "category": "음식점",
    "region": "조천",
    "address": "제주 제주시 조천읍 함덕20길 3 1층",
    "description": "음료수 1.25L 제공",
    "image": "",
    "latitude": "33.5400139",
    "longitude": "126.6703401"
  },
  {
    "id": "150",
    "name": "노꼬메 식당",
    "category": "음식점",
    "region": "용담",
    "address": "제주 제주시 용화로 35 진영빌라 1층 101호",
    "description": "서비스 메뉴 제공 또는 음료 제공",
    "image": "",
    "latitude": "33.5099859",
    "longitude": "126.50724"
  },
  {
    "id": "151",
    "name": "뉴욕델리하우스",
    "category": "음식점",
    "region": "탑동",
    "address": "제주 제주시 탑동로 105 1층",
    "description": "세트메뉴 주문시 디저트(아사이 요거트 아이스크림 or 수제 뉴욕바나나푸딩) 증정",
    "image": "",
    "latitude": "33.5155399",
    "longitude": "126.5171496"
  },
  {
    "id": "152",
    "name": "다다미",
    "category": "음식점",
    "region": "노형",
    "address": "제주 제주시 월랑로 30 1층 2호",
    "description": "학생증 제시시 10% 할인(메뉴 한정)",
    "image": "",
    "latitude": "33.488707",
    "longitude": "126.4769769"
  },
  {
    "id": "153",
    "name": "다맛국수",
    "category": "음식점",
    "region": "화북",
    "address": "제주 제주시 선반로6길 21 1층",
    "description": "음료 제공",
    "image": "",
    "latitude": "33.5133004",
    "longitude": "126.5624785"
  },
  {
    "id": "154",
    "name": "다올국수",
    "category": "음식점",
    "region": "삼도",
    "address": "제주 제주시 서광로 209-1 1층",
    "description": "음료수 제공",
    "image": "",
    "latitude": "33.5001715",
    "longitude": "126.5189266"
  },
  {
    "id": "155",
    "name": "대돈",
    "category": "음식점",
    "region": "건입동",
    "address": "제주 제주시 관덕로15길 29",
    "description": "고기메뉴 10% 할인",
    "image": "",
    "latitude": "33.5158742",
    "longitude": "126.5265881"
  },
  {
    "id": "156",
    "name": "덤장",
    "category": "음식점",
    "region": "중문",
    "address": "제주 서귀포시 천제연로 17 덤장 중문점",
    "description": "10% 할인",
    "image": "",
    "latitude": "33.2577039",
    "longitude": "126.4082208"
  },
  {
    "id": "157",
    "name": "도남 황금갈비",
    "category": "음식점",
    "region": "도남",
    "address": "제주 제주시 신성로 98",
    "description": "총 금액의 10% 할인",
    "image": "",
    "latitude": "33.4963815",
    "longitude": "126.5294861"
  },
  {
    "id": "158",
    "name": "도남오거리 도남점",
    "category": "음식점",
    "region": "도남",
    "address": "제주 제주시 도남로6길 16",
    "description": "불고기뚝배기",
    "image": "",
    "latitude": "33.4965584",
    "longitude": "126.5260937"
  },
  {
    "id": "159",
    "name": "도우라이더",
    "category": "음식점",
    "region": "아라일동",
    "address": "제주 제주시 인다8길 29 1층 101호",
    "description": "음료 또는 감튀 서비스 + 리뷰 쿠폰",
    "image": "",
    "latitude": "33.4764734",
    "longitude": "126.548045"
  },
  {
    "id": "160",
    "name": "돈나무흑돼지",
    "category": "음식점",
    "region": "노형",
    "address": "제주 제주시 신광로10길 3 돈나무흑돼지",
    "description": "10프로 할인",
    "image": "",
    "latitude": "33.4836453",
    "longitude": "126.4890832"
  },
  {
    "id": "161",
    "name": "돈내코 숯불갈비 연동점",
    "category": "음식점",
    "region": "연동",
    "address": "제주 제주시 연동4길 28-16 1층",
    "description": "테이블당 음료 제공",
    "image": "",
    "latitude": "33.483602",
    "longitude": "126.4867569"
  },
  {
    "id": "162",
    "name": "돈떵이 용담점",
    "category": "음식점",
    "region": "용담",
    "address": "제주 제주시 용담로 28",
    "description": "테이블 당 찌개 한 개",
    "image": "",
    "latitude": "33.5131047",
    "longitude": "126.5055333"
  },
  {
    "id": "163",
    "name": "돈벌집(인제)",
    "category": "음식점",
    "region": "일도이동",
    "address": "제주 제주시 천수로9길 4 1층",
    "description": "테이블 당 음료 한 개 제공",
    "image": "",
    "latitude": "33.5047096",
    "longitude": "126.5425753"
  },
  {
    "id": "164",
    "name": "돈주고 서사라점",
    "category": "음식점",
    "region": "삼도",
    "address": "제주 제주시 서광로 201 1층",
    "description": "고기 메뉴만 10% 할인",
    "image": "",
    "latitude": "33.5001939",
    "longitude": "126.5180142"
  },
  {
    "id": "165",
    "name": "돗깨비",
    "category": "음식점",
    "region": "공항연안권",
    "address": "제주 제주시 도리로 62 돗깨비",
    "description": "1인 1음료 제공",
    "image": "",
    "latitude": "33.49897",
    "longitude": "126.4589066"
  },
  {
    "id": "166",
    "name": "돗집",
    "category": "음식점",
    "region": "서귀포",
    "address": "제주 서귀포시 중앙로47번길 21 . 1층",
    "description": "2인 1음료 제공",
    "image": "",
    "latitude": "33.2482634",
    "longitude": "126.5593695"
  },
  {
    "id": "167",
    "name": "동해수산회센타",
    "category": "음식점",
    "region": "일도일동",
    "address": "제주 제주시 동문로4길 9 동문공설시장 동문공설주차장 1층 동해수산회센타",
    "description": "2~3인 이상 구매시 주류 한 병, 4인 이상 구매시 주류 2병(단 회 주문시)",
    "image": "",
    "latitude": "33.5120448",
    "longitude": "126.5282794"
  },
  {
    "id": "168",
    "name": "동화로 연탄구이 연동점",
    "category": "음식점",
    "region": "연동",
    "address": "제주 제주시 국기중길 12 1층 동화로연탄구이",
    "description": "테이블 당 콜라 한캔",
    "image": "",
    "latitude": "33.4798948",
    "longitude": "126.491087"
  },
  {
    "id": "169",
    "name": "동화로 연탄구이 화북점",
    "category": "음식점",
    "region": "화북",
    "address": "제주 제주시 동화로1길 53-20 1층",
    "description": "10만원 이상 식사시 현금결제 15%, 카드결제 10% 할인",
    "image": "",
    "latitude": "33.5176645",
    "longitude": "126.5781174"
  },
  {
    "id": "170",
    "name": "돼지살롱",
    "category": "음식점",
    "region": "삼도",
    "address": "제주 제주시 중앙로24길 8 1층",
    "description": "10% 할인 또는 네이버 리뷰 쫀득살 1인분 무료",
    "image": "",
    "latitude": "33.506516",
    "longitude": "126.5239867"
  },
  {
    "id": "171",
    "name": "돼통령 숯불갈비",
    "category": "음식점",
    "region": "서귀포",
    "address": "제주 서귀포시 중산간동로 8016-3 1층 돼통령숯불갈비",
    "description": "학생 인증 시 서비스음료 1개",
    "image": "",
    "latitude": "33.2646719",
    "longitude": "126.5602385"
  },
  {
    "id": "172",
    "name": "두끼 노형점",
    "category": "음식점",
    "region": "노형동",
    "address": "제주특별자치도 제주시 연북로 48 2층 203호",
    "description": "1000원 할인",
    "image": "",
    "latitude": "33.4816011",
    "longitude": "126.4864454"
  },
  {
    "id": "173",
    "name": "두끼 시청점",
    "category": "음식점",
    "region": "시청",
    "address": "제주 제주시 중앙로 230",
    "description": "4인이상 방문시 사이드 메뉴 1개 제공",
    "image": "",
    "latitude": "33.4991157",
    "longitude": "126.5299154"
  },
  {
    "id": "174",
    "name": "두찜 제주일도점",
    "category": "음식점",
    "region": "일도이동",
    "address": "제주 제주시 일도이동 고마로 90",
    "description": "10% 할인",
    "image": "",
    "latitude": "33.5062334",
    "longitude": "126.5406101"
  },
  {
    "id": "175",
    "name": "라지마할",
    "category": "음식점",
    "region": "연동",
    "address": "제주 제주시 신광로 43",
    "description": "테이블 당 음료수 한 개",
    "image": "",
    "latitude": "33.4882929",
    "longitude": "126.4903114"
  },
  {
    "id": "176",
    "name": "라타볼라",
    "category": "음식점",
    "region": "조천",
    "address": "제주 제주시 조천읍 신촌북3길 3 함덕본점 1층",
    "description": "현금 결제시(2인 이상) 와인 1병 제공",
    "image": "",
    "latitude": "33.5371814",
    "longitude": "126.6188242"
  },
  {
    "id": "177",
    "name": "레드몽키",
    "category": "음식점",
    "region": "연동",
    "address": "제주 제주시 신광로 45 2층",
    "description": "소주 혹은 맥주 1개 무료제공",
    "image": "",
    "latitude": "33.4880046",
    "longitude": "126.4902995"
  },
  {
    "id": "178",
    "name": "리릭",
    "category": "음식점",
    "region": "아라일동",
    "address": "제주 제주시 아란9길 25 1층 리릭",
    "description": "2인당 음료 1개 제공",
    "image": "",
    "latitude": "33.4725383",
    "longitude": "126.5426071"
  },
  {
    "id": "179",
    "name": "리프리지",
    "category": "음식점",
    "region": "탑동",
    "address": "제주 제주시 탑동로 109 1층",
    "description": "샐러드에 라떼 or 후무스 추가",
    "image": "",
    "latitude": "33.5153057",
    "longitude": "126.5174856"
  },
  {
    "id": "180",
    "name": "마리조아 본점",
    "category": "음식점",
    "region": "삼화",
    "address": "제주 제주시 삼봉로 99 1층",
    "description": "현금 결제 15% 할인",
    "image": "",
    "latitude": "33.5125068",
    "longitude": "126.5893708"
  },
  {
    "id": "181",
    "name": "마시레치킨",
    "category": "음식점",
    "region": "애월",
    "address": "제주 제주시 애월읍 하귀로 61",
    "description": "5만원당 3000원, 10만원당 8000원 할인",
    "image": "",
    "latitude": "33.4808422",
    "longitude": "126.4035498"
  },
  {
    "id": "182",
    "name": "마왕족발 아라점",
    "category": "음식점",
    "region": "아라일동",
    "address": "제주 제주시 아란7길 3-2",
    "description": "새우볶음밥(서비스볶음밥), 음료수 1.25L 택 1 서비스",
    "image": "",
    "latitude": "33.4742495",
    "longitude": "126.5447923"
  },
  {
    "id": "183",
    "name": "마왕족발 제주시청점",
    "category": "음식점",
    "region": "시청",
    "address": "제주 제주시 신성로 109-1 1층",
    "description": "10%할인",
    "image": "",
    "latitude": "33.49739400000001",
    "longitude": "126.5305001"
  },
  {
    "id": "184",
    "name": "마주앉아",
    "category": "음식점",
    "region": "서귀포",
    "address": "제주 서귀포시 명동로 27",
    "description": "15% 할인 제공",
    "image": "",
    "latitude": "33.2476083",
    "longitude": "126.5647525"
  },
  {
    "id": "185",
    "name": "마초면탁",
    "category": "음식점",
    "region": "애월",
    "address": "제주 제주시 노형로 89 노형슈퍼마켓 입구 2층",
    "description": "학생증 소지시 음료 1캔 무료 제공",
    "image": "",
    "latitude": "33.4648375",
    "longitude": "126.4551637"
  },
  {
    "id": "186",
    "name": "마초왕갈비",
    "category": "음식점",
    "region": "시청",
    "address": "제주 제주시 서광로32길 18 마초왕갈비",
    "description": "소주 2천원 할인",
    "image": "",
    "latitude": "33.4990697",
    "longitude": "126.5285019"
  },
  {
    "id": "187",
    "name": "막고릅써 오리조텐",
    "category": "음식점",
    "region": "화북",
    "address": "제주 제주시 진남로6길 35 1층",
    "description": "총금액 10% 할인",
    "image": "",
    "latitude": "33.5217574",
    "longitude": "126.5654139"
  },
  {
    "id": "188",
    "name": "막창먹는놈 인제점",
    "category": "음식점",
    "region": "일도이동",
    "address": "제주 제주시 고마로 151 고마로 151",
    "description": "학생증 제시 시 전메뉴 10% 할인",
    "image": "",
    "latitude": "33.5013312",
    "longitude": "126.5436909"
  },
  {
    "id": "189",
    "name": "맛있수다 중문점",
    "category": "음식점",
    "region": "서귀포",
    "address": "제주 서귀포시 예래로 50 맛있수다",
    "description": "5% 할인",
    "image": "",
    "latitude": "33.2559341",
    "longitude": "126.401178"
  },
  {
    "id": "190",
    "name": "먹주",
    "category": "음식점",
    "region": "시청",
    "address": "제주 제주시 신성로13길 1 2층 먹주",
    "description": "현금결제 시 10%할인",
    "image": "",
    "latitude": "33.4998531",
    "longitude": "126.529019"
  },
  {
    "id": "191",
    "name": "명륜진사갈비 아라점",
    "category": "음식점",
    "region": "아라일동",
    "address": "제주 제주시 아란7길 6 1층",
    "description": "제대학생 확인시 3,000원 할인",
    "image": "",
    "latitude": "33.4746111",
    "longitude": "126.5447235"
  },
  {
    "id": "192",
    "name": "모던뽀이",
    "category": "음식점",
    "region": "시청",
    "address": "제주 제주시 신성로13길 4 3층",
    "description": "학생증 지참시 음료수 1캔 제공",
    "image": "",
    "latitude": "33.4995164",
    "longitude": "126.5289356"
  },
  {
    "id": "193",
    "name": "목마(서귀포)",
    "category": "음식점",
    "region": "서귀포",
    "address": "제주 서귀포시 서문로29번길 30",
    "description": "17% 할인",
    "image": "",
    "latitude": "33.2477194",
    "longitude": "126.5595987"
  },
  {
    "id": "194",
    "name": "몬지락",
    "category": "음식점",
    "region": "용담",
    "address": "제주 제주시 용담로 92 1층",
    "description": "치즈 계란말이 서비스",
    "image": "",
    "latitude": "33.5119056",
    "longitude": "126.5123649"
  },
  {
    "id": "195",
    "name": "몰돗",
    "category": "음식점",
    "region": "조천",
    "address": "제주 제주시 조천읍 함대로 2",
    "description": "현금 결제 시 5% 할인",
    "image": "",
    "latitude": "33.5436113",
    "longitude": "126.6577903"
  },
  {
    "id": "196",
    "name": "못난이 꽈배기",
    "category": "음식점",
    "region": "이도이동",
    "address": "제주 제주시 구남동1길 32 1층",
    "description": "7000원 결제시 꽈배기 하나 서비스",
    "image": "",
    "latitude": "33.4924176",
    "longitude": "126.5402413"
  },
  {
    "id": "197",
    "name": "무시로",
    "category": "음식점",
    "region": "시청",
    "address": "제주 제주시 서광로32길 28-1 2층 무시로",
    "description": "사이드메뉴 무료",
    "image": "",
    "latitude": "33.4981722",
    "longitude": "126.5291477"
  },
  {
    "id": "198",
    "name": "무지개 맥주 일도점",
    "category": "음식점",
    "region": "일도이동",
    "address": "제주 제주시 고마로 142 1층",
    "description": "카드 결재시 10% 할인, 현금 15% 할인",
    "image": "",
    "latitude": "33.5019374",
    "longitude": "126.5427695"
  },
  {
    "id": "199",
    "name": "바다생각",
    "category": "음식점",
    "region": "삼화",
    "address": "제주 제주시 선사로8길 18 제주 제주시 선사로8길 18",
    "description": "음료수 서비스",
    "image": "",
    "latitude": "33.52581380000001",
    "longitude": "126.5876921"
  },
  {
    "id": "200",
    "name": "바르회식",
    "category": "음식점",
    "region": "일도이동",
    "address": "제주 제주시 연신로 30 1층",
    "description": "테이블당 음료 1개 제공",
    "image": "",
    "latitude": "33.4983507",
    "longitude": "126.5452412"
  },
  {
    "id": "201",
    "name": "밥방울",
    "category": "음식점",
    "region": "시청",
    "address": "제주 제주시 광양13길 12-2",
    "description": "5% 할인",
    "image": "",
    "latitude": "33.49875850000001",
    "longitude": "126.5316909"
  },
  {
    "id": "202",
    "name": "베르디 노형",
    "category": "음식점",
    "region": "노형",
    "address": "제주 제주시 원노형5길 5 2층",
    "description": "10% 할인",
    "image": "",
    "latitude": "33.4882093",
    "longitude": "126.4845676"
  },
  {
    "id": "203",
    "name": "별미돈",
    "category": "음식점",
    "region": "아라일동",
    "address": "제주 제주시 인다13길 59",
    "description": "2인분 주문시 음료 1개 서비스, 3인분 이상 주문시 계란찜 서비스",
    "image": "",
    "latitude": "33.4726827",
    "longitude": "126.5519838"
  },
  {
    "id": "204",
    "name": "보리타작 함덕직영점",
    "category": "음식점",
    "region": "함덕",
    "address": "제주 제주시 조천읍 함덕19길 9 2층",
    "description": "10% 할인",
    "image": "",
    "latitude": "33.5412571",
    "longitude": "126.6701331"
  },
  {
    "id": "205",
    "name": "부자왕돈까스",
    "category": "음식점",
    "region": "노형",
    "address": "제주 제주시 다랑곶길 26-1 1층 부자왕돈까스",
    "description": "음료 서비스",
    "image": "",
    "latitude": "33.4882796",
    "longitude": "126.4807419"
  },
  {
    "id": "206",
    "name": "부지깽이",
    "category": "음식점",
    "region": "이도이동",
    "address": "제주 제주시 광양13길 11-2",
    "description": "테이블 당 음료 2개 제공",
    "image": "",
    "latitude": "33.4992943",
    "longitude": "126.5316234"
  },
  {
    "id": "207",
    "name": "불만난고기",
    "category": "음식점",
    "region": "서귀포",
    "address": "제주 서귀포시 중앙로 157 불만난고기",
    "description": "음료수 제공",
    "image": "",
    "latitude": "33.2584904",
    "longitude": "126.5597772"
  },
  {
    "id": "208",
    "name": "빨간집 서귀포점",
    "category": "음식점",
    "region": "서귀포",
    "address": "제주 서귀포시 이중섭로 12-1 1층",
    "description": "음료수 서비스",
    "image": "",
    "latitude": "33.2469981",
    "longitude": "126.5640759"
  },
  {
    "id": "209",
    "name": "빨간집 월랑점",
    "category": "음식점",
    "region": "노형",
    "address": "제주 제주시 다랑곶4길 46 102호",
    "description": "테이블 당 계란찜 1개 제공",
    "image": "",
    "latitude": "33.490114",
    "longitude": "126.4782661"
  },
  {
    "id": "210",
    "name": "뻘쭈 대학로점",
    "category": "음식점",
    "region": "시청",
    "address": "제주 제주시 신성로13길 20 1층",
    "description": "학생증 제시시 음료수 서비스 (2인 - 1개, 3인 이상 - 2개)",
    "image": "",
    "latitude": "33.4984453",
    "longitude": "126.5296509"
  },
  {
    "id": "211",
    "name": "사랑물",
    "category": "음식점",
    "region": "일도이동",
    "address": "제주 제주시 고마로 55",
    "description": "소주 3천원 및 2~3만원 안주제공",
    "image": "",
    "latitude": "33.5093357",
    "longitude": "126.5397506"
  },
  {
    "id": "212",
    "name": "산방산 팔미돈가",
    "category": "음식점",
    "region": "서귀포",
    "address": "제주 서귀포시 안덕면 사계로 187-3 1동",
    "description": "10% 할인",
    "image": "",
    "latitude": "33.2464607",
    "longitude": "126.3025716"
  },
  {
    "id": "213",
    "name": "삼경일 아라점",
    "category": "음식점",
    "region": "아라동",
    "address": "제주시 아란7길 14 1층",
    "description": "1인당 새우튀김 1개씩 증정",
    "image": "",
    "latitude": "33.4746077",
    "longitude": "126.5439944"
  },
  {
    "id": "214",
    "name": "삼촌과 조카",
    "category": "음식점",
    "region": "용담",
    "address": "제주 제주시 흥운길 39",
    "description": "테이블 당 음료 １개 서비스",
    "image": "",
    "latitude": "33.5124314",
    "longitude": "126.5122812"
  },
  {
    "id": "215",
    "name": "샐러디 노형점",
    "category": "음식점",
    "region": "노형",
    "address": "제주 제주시 연북로 24 103호",
    "description": "음료 제공",
    "image": "",
    "latitude": "33.4816897",
    "longitude": "126.4839126"
  },
  {
    "id": "216",
    "name": "샐러디 시청점",
    "category": "음식점",
    "region": "시청",
    "address": "제주 제주시 서광로 283 1층",
    "description": "음료 제공",
    "image": "",
    "latitude": "33.5005349",
    "longitude": "126.5268266"
  },
  {
    "id": "217",
    "name": "서귀포 장수 해장국",
    "category": "음식점",
    "region": "서귀포",
    "address": "제주 서귀포시 신서귀로51번길 11 1층 서귀포장수해장국",
    "description": "테이블당 음료수 1개 제공",
    "image": "",
    "latitude": "33.2538047",
    "longitude": "126.5101469"
  },
  {
    "id": "218",
    "name": "서귀포닭해장국",
    "category": "음식점",
    "region": "서귀포",
    "address": "제주 서귀포시 홍중로 25 1층",
    "description": "음료수 1개 서비스 제공",
    "image": "",
    "latitude": "33.2549566",
    "longitude": "126.5580621"
  },
  {
    "id": "219",
    "name": "서귀포차오",
    "category": "음식점",
    "region": "서귀포",
    "address": "제주 서귀포시 중앙로48번길 15 1층",
    "description": "음료수 제공",
    "image": "",
    "latitude": "33.2493581",
    "longitude": "126.5631598"
  },
  {
    "id": "220",
    "name": "서영이네 해돈가",
    "category": "음식점",
    "region": "연동",
    "address": "제주 제주시 삼무로3길 30 서영이네 해돈가",
    "description": "4인기준 테이블당 새우 6개 제공",
    "image": "",
    "latitude": "33.4905172",
    "longitude": "126.4927898"
  },
  {
    "id": "221",
    "name": "서울냉면",
    "category": "음식점",
    "region": "이도이동",
    "address": "제주 제주시 광양7길 49 1층",
    "description": "음료수제공",
    "image": "",
    "latitude": "33.5024935",
    "longitude": "126.5339846"
  },
  {
    "id": "222",
    "name": "선상바베큐",
    "category": "음식점",
    "region": "공항연안권",
    "address": "제주 제주시 서해안로 620-1 2호 (4층,5층) 선상바베큐",
    "description": "10% 할인",
    "image": "",
    "latitude": "33.5163208",
    "longitude": "126.5035006"
  },
  {
    "id": "223",
    "name": "소파 노형",
    "category": "음식점",
    "region": "노형",
    "address": "제주 제주시 노형8길 16 2층 201호",
    "description": "10%할인",
    "image": "",
    "latitude": "33.483757",
    "longitude": "126.4785572"
  },
  {
    "id": "224",
    "name": "순옥상회",
    "category": "음식점",
    "region": "용담",
    "address": "제주 제주시 용담로 85-1",
    "description": "테이블 당 음료 １개 서비스",
    "image": "",
    "latitude": "33.5123529",
    "longitude": "126.5120269"
  },
  {
    "id": "225",
    "name": "스시섬",
    "category": "음식점",
    "region": "서귀포",
    "address": "제주 서귀포시 중앙로 199 1층 상가 13호",
    "description": "음료 무료 제공",
    "image": "",
    "latitude": "33.2625878",
    "longitude": "126.5585209"
  },
  {
    "id": "226",
    "name": "시시한 덮밥",
    "category": "음식점",
    "region": "아라일동",
    "address": "제주 제주시 인다11길 13 1층 시시한덮밥",
    "description": "메뉴 3개 이상 음료수 서비스",
    "image": "",
    "latitude": "33.4740341",
    "longitude": "126.5490379"
  },
  {
    "id": "227",
    "name": "시키",
    "category": "음식점",
    "region": "애월",
    "address": "제주 제주시 애월읍 하귀동남1길 25 1층",
    "description": "전 메뉴 10% 할인",
    "image": "",
    "latitude": "33.4856084",
    "longitude": "126.4137341"
  },
  {
    "id": "228",
    "name": "식전당포",
    "category": "음식점",
    "region": "시청",
    "address": "제주 제주시 광양14길 17-1",
    "description": "테이블당 사이드 비빔면 1개 제공",
    "image": "",
    "latitude": "33.4975935",
    "longitude": "126.5292683"
  },
  {
    "id": "229",
    "name": "신마포갈매기 인제",
    "category": "음식점",
    "region": "일도이동",
    "address": "제주 제주시 고마로 99",
    "description": "4인 이상 음료수 한 개",
    "image": "",
    "latitude": "33.5056922",
    "longitude": "126.5413868"
  },
  {
    "id": "230",
    "name": "신세계회센타",
    "category": "음식점",
    "region": "용담",
    "address": "제주시 용담1동 143-6",
    "description": "서비스 음료 제공",
    "image": "",
    "latitude": "33.5081637",
    "longitude": "126.5150147"
  },
  {
    "id": "231",
    "name": "쌍팔련도 본점",
    "category": "음식점",
    "region": "일도이동",
    "address": "제주 제주시 연수로1길 2 1층 쌍팔련도제주본점",
    "description": "음료수 사이드 메뉴 서비스",
    "image": "",
    "latitude": "33.5020691",
    "longitude": "126.5435464"
  },
  {
    "id": "232",
    "name": "아구듬뿍&알곤마니 구제주점",
    "category": "음식점",
    "region": "이도이동",
    "address": "제주 제주시 정든로5길 24",
    "description": "음료 1.25L 무료 제공",
    "image": "",
    "latitude": "33.497493",
    "longitude": "126.5420515"
  },
  {
    "id": "233",
    "name": "아구찜의 정석 시청점",
    "category": "음식점",
    "region": "시청",
    "address": "제주 제주시 서광로29길 3 1층",
    "description": "매장 방문시 5% 할인",
    "image": "",
    "latitude": "33.5007718",
    "longitude": "126.5265248"
  },
  {
    "id": "234",
    "name": "아리",
    "category": "음식점",
    "region": "서귀포",
    "address": "제주 서귀포시 홍중로 99 1층",
    "description": "온천계란 증정",
    "image": "",
    "latitude": "33.2614313",
    "longitude": "126.5553554"
  },
  {
    "id": "235",
    "name": "어디가코 시청점",
    "category": "음식점",
    "region": "시청",
    "address": "제주 제주시 서광로32길 23 어디가코 시청점",
    "description": "소추 2천원 할인",
    "image": "",
    "latitude": "33.4986034",
    "longitude": "126.5291569"
  },
  {
    "id": "236",
    "name": "어매흑돼지",
    "category": "음식점",
    "region": "노형",
    "address": "제주 제주시 신광로10길 15",
    "description": "5% 할인",
    "image": "",
    "latitude": "33.483731",
    "longitude": "126.4877444"
  },
  {
    "id": "237",
    "name": "어장관리",
    "category": "음식점",
    "region": "연동",
    "address": "제주 제주시 귀아랑길 23 어장관리",
    "description": "음료수 1개 서비스 제공",
    "image": "",
    "latitude": "33.4914628",
    "longitude": "126.4975729"
  },
  {
    "id": "238",
    "name": "어쩌다 제주혼술바",
    "category": "음식점",
    "region": "중앙로",
    "address": "제주 제주시 칠성로길 34 1층",
    "description": "칵테일 1잔 주문 시 1잔 서비스",
    "image": "",
    "latitude": "33.5143817",
    "longitude": "126.526426"
  },
  {
    "id": "239",
    "name": "에그드랍시청점",
    "category": "음식점",
    "region": "시청",
    "address": "제주 제주시 서광로 301 1층",
    "description": "음료 사이즈업",
    "image": "",
    "latitude": "33.500912",
    "longitude": "126.5283696"
  },
  {
    "id": "240",
    "name": "에그플랜트 협재판포점",
    "category": "음식점",
    "region": "한경면",
    "address": "제주 제주시 한경면 판포4길 41-41 1층 에그플랜트 제주",
    "description": "3,000원 할인",
    "image": "",
    "latitude": "33.365701",
    "longitude": "126.203253"
  },
  {
    "id": "241",
    "name": "에머이",
    "category": "음식점",
    "region": "아라일동",
    "address": "제주 제주시 인다3길 8-2 2층 에머이",
    "description": "음료제공",
    "image": "",
    "latitude": "33.4768415",
    "longitude": "126.5488797"
  },
  {
    "id": "242",
    "name": "엘리팝",
    "category": "음식점",
    "region": "건입동",
    "address": "제주 제주시 관덕로15길 29 2층",
    "description": "판매금액 10% 할인",
    "image": "",
    "latitude": "33.5158742",
    "longitude": "126.5265881"
  },
  {
    "id": "243",
    "name": "연동돼지",
    "category": "음식점",
    "region": "연동",
    "address": "제주 제주시 제원길 8 1층 연동돼지",
    "description": "주류 한 병 서비스(주류 3병 이상 주문 시)",
    "image": "",
    "latitude": "33.4892172",
    "longitude": "126.4892947"
  },
  {
    "id": "244",
    "name": "영재숯불갈비",
    "category": "음식점",
    "region": "연동",
    "address": "제주 제주시 신광로10길 23",
    "description": "음료 서비스",
    "image": "",
    "latitude": "33.4837467",
    "longitude": "126.4872609"
  },
  {
    "id": "245",
    "name": "오늘 해장국",
    "category": "음식점",
    "region": "화북",
    "address": "제주 제주시 진동로 5 101호(화북일동)",
    "description": "2인 1캔 무료제공",
    "image": "",
    "latitude": "33.5195028",
    "longitude": "126.5685407"
  },
  {
    "id": "246",
    "name": "오늘은 막창 먹자",
    "category": "음식점",
    "region": "시청",
    "address": "제주 제주시 동고산로 11",
    "description": "음료 제공",
    "image": "",
    "latitude": "33.4984461",
    "longitude": "126.5322863"
  },
  {
    "id": "247",
    "name": "오라방 솥뚜껑",
    "category": "음식점",
    "region": "도남",
    "address": "제주 제주시 도남로 48-1",
    "description": "음료수 서비스 2개",
    "image": "",
    "latitude": "33.4959027",
    "longitude": "126.526841"
  },
  {
    "id": "248",
    "name": "오마오(OMAO)",
    "category": "음식점",
    "region": "시청",
    "address": "제주 제주시 서광로32길 27-3 1층",
    "description": "2만원 이상 주문 시 후추 아이스크림 제공",
    "image": "",
    "latitude": "33.4985091",
    "longitude": "126.5294334"
  },
  {
    "id": "249",
    "name": "오솔길식당",
    "category": "음식점",
    "region": "건입동",
    "address": "제주 제주시 임항로 264 1층",
    "description": "갈매기살 테이블당 100g 서비스",
    "image": "",
    "latitude": "33.5173933",
    "longitude": "126.5381715"
  },
  {
    "id": "250",
    "name": "오양손칼국수",
    "category": "음식점",
    "region": "도남",
    "address": "제주 제주시 공설로9길 1",
    "description": "2인 이상 방문 시 한 테이블 당 음료 1개 제공",
    "image": "",
    "latitude": "33.496988",
    "longitude": "126.5181879"
  },
  {
    "id": "251",
    "name": "오징어집 제주본점",
    "category": "음식점",
    "region": "연동",
    "address": "제주 제주시 은남3길 33 1층",
    "description": "테이블당 10% 할인",
    "image": "",
    "latitude": "33.4872175",
    "longitude": "126.4922682"
  },
  {
    "id": "252",
    "name": "온평",
    "category": "음식점",
    "region": "시청",
    "address": "제주 제주시 서광로32길 28-1 1층",
    "description": "온평라면 서비스",
    "image": "",
    "latitude": "33.4981722",
    "longitude": "126.5291477"
  },
  {
    "id": "253",
    "name": "와랑와랑한식뷔페",
    "category": "음식점",
    "region": "서귀포",
    "address": "제주 서귀포시 대정읍 추사로 93-11 1층",
    "description": "음료 제공(1인 1음료)",
    "image": "",
    "latitude": "33.2509832",
    "longitude": "126.2729611"
  },
  {
    "id": "254",
    "name": "왕생가든",
    "category": "음식점",
    "region": "영평",
    "address": "제주 제주시 연신로 261-3",
    "description": "학생증 제시할시 테이블당 음료수 2개씩 서비스",
    "image": "",
    "latitude": "33.4822597",
    "longitude": "126.5612378"
  },
  {
    "id": "255",
    "name": "용짜형뽕",
    "category": "음식점",
    "region": "용담",
    "address": "제주 제주시 용두암길 62 1층",
    "description": "1인 방문 1000원 할인",
    "image": "",
    "latitude": "33.5122286",
    "longitude": "126.513468"
  },
  {
    "id": "256",
    "name": "우대포",
    "category": "음식점",
    "region": "도남",
    "address": "제주 제주시 복지로9길 27-11 1층",
    "description": "소고기 된장찌개 또는 치즈계란찜+음료 1캔 서비스",
    "image": "",
    "latitude": "33.4892252",
    "longitude": "126.5277812"
  },
  {
    "id": "257",
    "name": "원스텝가든 제주본점",
    "category": "음식점",
    "region": "노형",
    "address": "제주 제주시 연동12길 4 맥스호텔 15층 16층",
    "description": "동반 포함 전메뉴 10% 할인",
    "image": "",
    "latitude": "33.4853708",
    "longitude": "126.4930291"
  },
  {
    "id": "258",
    "name": "월계관",
    "category": "음식점",
    "region": "시청",
    "address": "제주 제주시 신성로 107-1 1층",
    "description": "술 병당 1000원 할인",
    "image": "",
    "latitude": "33.4972507",
    "longitude": "126.5303002"
  },
  {
    "id": "259",
    "name": "월궁",
    "category": "음식점",
    "region": "아라일동",
    "address": "제주시 산천단동2길 20",
    "description": "2인 이상 방문 시 한 테이블 당 음료 1개 제공",
    "image": "",
    "latitude": "33.4497495",
    "longitude": "126.5585773"
  },
  {
    "id": "260",
    "name": "월랑낙곱새",
    "category": "음식점",
    "region": "노형",
    "address": "제주 제주시 월랑로 29 1층 월랑낙곱새",
    "description": "2인 이상 음료 1서비스",
    "image": "",
    "latitude": "33.4882157",
    "longitude": "126.4764799"
  },
  {
    "id": "261",
    "name": "유메이우동",
    "category": "음식점",
    "region": "구좌",
    "address": "제주 제주시 구좌읍 월정3길 52 월정리 유메이우동",
    "description": "2인 방문시 음료 1캔 서비스, 4인 방문시 음료 2캔 서비스",
    "image": "",
    "latitude": "33.5554333",
    "longitude": "126.7947868"
  },
  {
    "id": "262",
    "name": "육남매",
    "category": "음식점",
    "region": "연동",
    "address": "제주 제주시 신대로7길 15-1",
    "description": "10%할인",
    "image": "",
    "latitude": "33.4919801",
    "longitude": "126.4983589"
  },
  {
    "id": "263",
    "name": "육싸롱 제주연동점",
    "category": "음식점",
    "region": "연동",
    "address": "제주 제주시 연동7길 41 1층",
    "description": "음료수 2캔 or 껍데기 제공",
    "image": "",
    "latitude": "33.4862867",
    "longitude": "126.490852"
  },
  {
    "id": "264",
    "name": "육쌈고기뷔페 일도점",
    "category": "음식점",
    "region": "일도이동",
    "address": "제주 제주시 연수로3길 4 2층",
    "description": "테이블당 막국수 1개 or 주류 1병 제공",
    "image": "",
    "latitude": "33.5022289",
    "longitude": "126.5433795"
  },
  {
    "id": "265",
    "name": "윤성식당",
    "category": "음식점",
    "region": "서귀포",
    "address": "제주 서귀포시 대정읍 일주서로3000번길 139 1F",
    "description": "방문시 음료수 무료 증정",
    "image": "",
    "latitude": "33.2575972",
    "longitude": "126.2289732"
  },
  {
    "id": "266",
    "name": "은화수식당 용담점",
    "category": "음식점",
    "region": "용담",
    "address": "제주 제주시 용담로 85-1 1층",
    "description": "제주대학교 학생증 제시 1테이블당 음료 500ml 제공",
    "image": "",
    "latitude": "33.5123529",
    "longitude": "126.5120269"
  },
  {
    "id": "267",
    "name": "이고집(서귀포)",
    "category": "음식점",
    "region": "서귀포",
    "address": "제주 서귀포시 문부로 7",
    "description": "테이블당 음료 1개 서비스",
    "image": "",
    "latitude": "33.2522226",
    "longitude": "126.5686565"
  },
  {
    "id": "268",
    "name": "이레 메밀막국수",
    "category": "음식점",
    "region": "서귀포",
    "address": "제주 서귀포시 천지로 59",
    "description": "3인 이상 주문 시 왕만두 서비스",
    "image": "",
    "latitude": "33.2525924",
    "longitude": "126.5590632"
  },
  {
    "id": "269",
    "name": "이모밥상",
    "category": "음식점",
    "region": "연동",
    "address": "제주 제주시 연북로 173",
    "description": "10% 할인",
    "image": "",
    "latitude": "33.4819769",
    "longitude": "126.4999506"
  },
  {
    "id": "270",
    "name": "이춘옥원조고등어쌈밥집",
    "category": "음식점",
    "region": "애월",
    "address": "제주 제주시 애월읍 일주서로 7213",
    "description": "10% 할인",
    "image": "",
    "latitude": "33.4889643",
    "longitude": "126.4186374"
  },
  {
    "id": "271",
    "name": "일만족발",
    "category": "음식점",
    "region": "노형",
    "address": "제주 제주시 원노형로 42",
    "description": "10%할인",
    "image": "",
    "latitude": "33.4850721",
    "longitude": "126.4847227"
  },
  {
    "id": "272",
    "name": "임제 제주본점",
    "category": "음식점",
    "region": "삼도",
    "address": "제주 제주시 탑동로 126 2층",
    "description": "소주 2,000원",
    "image": "",
    "latitude": "33.5160467",
    "longitude": "126.5196211"
  },
  {
    "id": "273",
    "name": "자가제빵선명희피자",
    "category": "음식점",
    "region": "아라일동",
    "address": "제주 제주시 중앙로 532 1층",
    "description": "포장 시 음료 500mL 제공",
    "image": "",
    "latitude": "33.47566690000001",
    "longitude": "126.5445865"
  },
  {
    "id": "274",
    "name": "접시고기",
    "category": "음식점",
    "region": "시청",
    "address": "제주 제주시 광양13길 18 1층",
    "description": "테이블당 음료 1개 제공",
    "image": "",
    "latitude": "33.4993577",
    "longitude": "126.5323056"
  },
  {
    "id": "275",
    "name": "정직한통닭 용담점",
    "category": "음식점",
    "region": "용담",
    "address": "제주 제주시 용담로 41",
    "description": "전체 금액의 ５% 할인",
    "image": "",
    "latitude": "33.5131238",
    "longitude": "126.5072905"
  },
  {
    "id": "276",
    "name": "제담 샤브샤브",
    "category": "음식점",
    "region": "아라일동",
    "address": "제주 제주시 중앙로 490 2층",
    "description": "10% 할인 or 음료수 제공",
    "image": "",
    "latitude": "33.4795302",
    "longitude": "126.5433855"
  },
  {
    "id": "277",
    "name": "제바나 횟집",
    "category": "음식점",
    "region": "용담",
    "address": "제주 제주시 서해안로 634",
    "description": "10% 할인 제공",
    "image": "",
    "latitude": "33.5166579",
    "longitude": "126.5048909"
  },
  {
    "id": "278",
    "name": "제주 베짱이70",
    "category": "음식점",
    "region": "노형",
    "address": "제주 제주시 노형5길 8",
    "description": "10%할인",
    "image": "",
    "latitude": "33.4817791",
    "longitude": "126.4764248"
  },
  {
    "id": "279",
    "name": "제주 한담국수",
    "category": "음식점",
    "region": "애월",
    "address": "제주 제주시 애월읍 애월로 33 1층",
    "description": "1인 1메뉴 주문시 사이드메뉴 1개 제공(1인 방문시 반접시)",
    "image": "",
    "latitude": "33.4618736",
    "longitude": "126.3120501"
  },
  {
    "id": "280",
    "name": "제주갈치장 제주공항점",
    "category": "음식점",
    "region": "노형",
    "address": "제주 제주시 원노형로 35 1층 제주 갈치장 갈치조림 전문점",
    "description": "10% 할인",
    "image": "",
    "latitude": "33.485592",
    "longitude": "126.4851492"
  },
  {
    "id": "281",
    "name": "제주곶 서귀포 해물라면",
    "category": "음식점",
    "region": "서귀포",
    "address": "제주 서귀포시 칠십리로214번길 36 제주곶 서귀포 해물라면",
    "description": "튀김 & 음료 제공",
    "image": "",
    "latitude": "33.2448778",
    "longitude": "126.5732229"
  },
  {
    "id": "282",
    "name": "제주기사정식뷔페",
    "category": "음식점",
    "region": "도남",
    "address": "제주 제주시 공설로 23",
    "description": "음료 제공",
    "image": "",
    "latitude": "33.4980219",
    "longitude": "126.5167885"
  },
  {
    "id": "283",
    "name": "제주남문숯불치킨 노형점",
    "category": "음식점",
    "region": "노형",
    "address": "제주 제주시 수덕11길 44 1층",
    "description": "10% 할인",
    "image": "",
    "latitude": "33.485569",
    "longitude": "126.4726295"
  },
  {
    "id": "284",
    "name": "제주대패집",
    "category": "음식점",
    "region": "아라일동",
    "address": "제주 제주시 중앙로 606-4 1층",
    "description": "테이블당 계란찜 한 개, 음료수 한 캔 제공",
    "image": "",
    "latitude": "33.4696582",
    "longitude": "126.5463778"
  },
  {
    "id": "285",
    "name": "제주도깨비 무한리필 일도점",
    "category": "음식점",
    "region": "일도이동",
    "address": "제주 제주시 고마로 105 1층",
    "description": "4인 이상 음료수 한 개",
    "image": "",
    "latitude": "33.5051627",
    "longitude": "126.5416574"
  },
  {
    "id": "286",
    "name": "제주돈소리(인제)",
    "category": "음식점",
    "region": "일도이동",
    "address": "제주 제주시 고마로16길 9 1층",
    "description": "테이블 당 음료 두 개 제공",
    "image": "",
    "latitude": "33.5053453",
    "longitude": "126.5402632"
  },
  {
    "id": "287",
    "name": "제주명가두루치기",
    "category": "음식점",
    "region": "서귀포",
    "address": "제주 서귀포시 산록남로 2704-12",
    "description": "10% 할인, 음료수 서비스",
    "image": "",
    "latitude": "33.2968291",
    "longitude": "126.5734647"
  },
  {
    "id": "288",
    "name": "제주미소",
    "category": "음식점",
    "region": "일도이동",
    "address": "제주 제주시 연수로1길 6 1층",
    "description": "학생증 제시시 전메뉴 10% 할인 + 학생들이 인스타 스토리 올릴시 고기 추가",
    "image": "",
    "latitude": "33.5017569",
    "longitude": "126.543671"
  },
  {
    "id": "289",
    "name": "제주바다에",
    "category": "음식점",
    "region": "아라일동",
    "address": "제주 제주시 연북로 550 104호",
    "description": "대게 또는 킹크랩 구매시 현금결제 10% , 카드결제 5% 할인",
    "image": "",
    "latitude": "33.4859603",
    "longitude": "126.5384442"
  },
  {
    "id": "290",
    "name": "제주복진 함덕",
    "category": "음식점",
    "region": "함덕",
    "address": "제주 제주시 조천읍 조함해안로 538 2층",
    "description": "흑돼지 돈까스 한접시 증정",
    "image": "",
    "latitude": "33.5423356",
    "longitude": "126.6704101"
  },
  {
    "id": "291",
    "name": "제주소풍김밥",
    "category": "음식점",
    "region": "노형",
    "address": "제주 제주시 수덕5길 40 1층",
    "description": "5000원 이상 구매시 팩음료 1개 제공",
    "image": "",
    "latitude": "33.485175",
    "longitude": "126.4746347"
  },
  {
    "id": "292",
    "name": "제주아방",
    "category": "음식점",
    "region": "연동",
    "address": "제주 제주시 국기로2길 10 1층",
    "description": "학생증 제시 시 음료 서비스",
    "image": "",
    "latitude": "33.4799168",
    "longitude": "126.490717"
  },
  {
    "id": "293",
    "name": "제주오겹살왕돌구이 본점",
    "category": "음식점",
    "region": "도남",
    "address": "제주 제주시 도남로 14 제주오겹살왕돌구이집",
    "description": "10% 할인",
    "image": "",
    "latitude": "33.4987242",
    "longitude": "126.5249755"
  },
  {
    "id": "294",
    "name": "제주오쿠다본점",
    "category": "음식점",
    "region": "용담",
    "address": "제주 제주시 용문로18길 60-5",
    "description": "음료수 제공",
    "image": "",
    "latitude": "33.5027763",
    "longitude": "126.5100737"
  },
  {
    "id": "295",
    "name": "제주으뜸흑돼지",
    "category": "음식점",
    "region": "용담",
    "address": "제주 제주시 동한두기길 23 제주으뜸흑돼지",
    "description": "결제금액 10% 할인",
    "image": "",
    "latitude": "33.5169309",
    "longitude": "126.5156551"
  },
  {
    "id": "296",
    "name": "제주장충왕족발",
    "category": "음식점",
    "region": "연동",
    "address": "제주 제주시 선덕로 12 1층",
    "description": "사이드메뉴 1종 서비스",
    "image": "",
    "latitude": "33.4854588",
    "longitude": "126.4978479"
  },
  {
    "id": "297",
    "name": "제주탑동골목",
    "category": "음식점",
    "region": "탑동",
    "address": "제주 제주시 중앙로5길 13 1층",
    "description": "예약 후 방문시 위스키 한잔",
    "image": "",
    "latitude": "33.5153403",
    "longitude": "126.5260957"
  },
  {
    "id": "298",
    "name": "제주풍년식당",
    "category": "음식점",
    "region": "삼화",
    "address": "제주 제주시 설촌로2길 3 1층상가",
    "description": "재학생 팀당 주류 or 음료 1병",
    "image": "",
    "latitude": "33.5220291",
    "longitude": "126.582044"
  },
  {
    "id": "299",
    "name": "제주혼술바 고도",
    "category": "음식점",
    "region": "이도일동",
    "address": "제주 제주시 중앙로14길 5 1층",
    "description": "제주대 학우 인증 시 15% 할인",
    "image": "",
    "latitude": "33.5112455",
    "longitude": "126.5237384"
  },
  {
    "id": "300",
    "name": "좋아좋아 숯불갈비 4호점",
    "category": "음식점",
    "region": "일도이동",
    "address": "제주 제주시 연수로3길 4 1층",
    "description": "테이블 당 껍데기",
    "image": "",
    "latitude": "33.5022289",
    "longitude": "126.5433795"
  },
  {
    "id": "301",
    "name": "주화당",
    "category": "음식점",
    "region": "일도이동",
    "address": "제주 제주시 연수로4길 3 주화당",
    "description": "아이스크림, 황도 택 1 서비스",
    "image": "",
    "latitude": "33.5028941",
    "longitude": "126.5434382"
  },
  {
    "id": "302",
    "name": "중문우동한그릇",
    "category": "음식점",
    "region": "서귀포",
    "address": "제주 서귀포시 중문관광로 9 중문우동한그릇 서귀포본점",
    "description": "2인당 음료 1개 서비스",
    "image": "",
    "latitude": "33.2570889",
    "longitude": "126.4152455"
  },
  {
    "id": "303",
    "name": "지인",
    "category": "음식점",
    "region": "화북",
    "address": "제주 제주시 진남로6길 26 1층",
    "description": "총 금액의 10% 할인",
    "image": "",
    "latitude": "33.5211124",
    "longitude": "126.5658938"
  },
  {
    "id": "304",
    "name": "진도새기",
    "category": "음식점",
    "region": "노형",
    "address": "제주 제주시 광평동로 67 진도새기",
    "description": "음료수 증정",
    "image": "",
    "latitude": "33.4849422",
    "longitude": "126.4668135"
  },
  {
    "id": "305",
    "name": "집나간 왕새우 바람난 조개",
    "category": "음식점",
    "region": "서귀포",
    "address": "제주 서귀포시 명동로 14 1층 대하마트",
    "description": "칼국수 2인분 제공",
    "image": "",
    "latitude": "33.2470541",
    "longitude": "126.5634172"
  },
  {
    "id": "306",
    "name": "짬뽕의정석",
    "category": "음식점",
    "region": "노형",
    "address": "제주 제주시 원노형5길 28 엘리시아아파트",
    "description": "4인 이상 방문시 음료 1개 제공",
    "image": "",
    "latitude": "33.4872618",
    "longitude": "126.4827134"
  },
  {
    "id": "307",
    "name": "착한제주고등어",
    "category": "음식점",
    "region": "건입동",
    "address": "제주 제주시 동문로11길 5 착한제주고등어",
    "description": "제대 학생 인증 시 1인 1음료",
    "image": "",
    "latitude": "33.5136194",
    "longitude": "126.5312887"
  },
  {
    "id": "308",
    "name": "창성상회",
    "category": "음식점",
    "region": "도남",
    "address": "제주 제주시 도남로 25 1층 창성상회",
    "description": "찌개 또는 음료 1가지 무료 제공",
    "image": "",
    "latitude": "33.4977535",
    "longitude": "126.5259546"
  },
  {
    "id": "309",
    "name": "철이네해장국",
    "category": "음식점",
    "region": "용담",
    "address": "제주 제주시 탑동로 134 1층",
    "description": "주류 1,000원 할인 및 계란후라이 인당 1개씩 제공",
    "image": "",
    "latitude": "33.5133703",
    "longitude": "126.5179965"
  },
  {
    "id": "310",
    "name": "청년다방 이도점",
    "category": "음식점",
    "region": "이도이동",
    "address": "제주 제주시 남광로2길 41-1 1층",
    "description": "배달 주문시 쿨다방 서비스 매장 방문 후 학생증 제시 날치알볶음밥 제공",
    "image": "",
    "latitude": "33.4894093",
    "longitude": "126.5399222"
  },
  {
    "id": "311",
    "name": "촌뜨기 화로구이",
    "category": "음식점",
    "region": "도남",
    "address": "제주 제주시 도남로 117 1층 촌뜨기 화로구이",
    "description": "10% 할인 및 2인 기준 음료 1개 서비스, 10인 이상 단체시 주문량에 따라 고기 1인 서비스",
    "image": "",
    "latitude": "33.4901047",
    "longitude": "126.5290701"
  },
  {
    "id": "312",
    "name": "치킨코리아 제주시청점",
    "category": "음식점",
    "region": "시청",
    "address": "제주 제주시 광양8길 1-2 1층",
    "description": "테이블 당 음료 1개 제공",
    "image": "",
    "latitude": "33.4997928",
    "longitude": "126.5291687"
  },
  {
    "id": "313",
    "name": "친정집",
    "category": "음식점",
    "region": "화북",
    "address": "제주 제주시 일주동로 260",
    "description": "20% 할인",
    "image": "",
    "latitude": "33.5200838",
    "longitude": "126.5731444"
  },
  {
    "id": "314",
    "name": "쿠미 제주동문시장점",
    "category": "음식점",
    "region": "중앙로",
    "address": "제주 제주시 관덕로11길 8-3 2층",
    "description": "5% 할인",
    "image": "",
    "latitude": "33.5139781",
    "longitude": "126.5256824"
  },
  {
    "id": "315",
    "name": "큰일집",
    "category": "음식점",
    "region": "일도이동",
    "address": "제주 제주시 삼성로 49 1층",
    "description": "10% 할인",
    "image": "",
    "latitude": "33.507257",
    "longitude": "126.5305928"
  },
  {
    "id": "316",
    "name": "키덜트",
    "category": "음식점",
    "region": "시청",
    "address": "제주 제주시 동고산로 10 1층",
    "description": "10% 할인",
    "image": "",
    "latitude": "33.4981631",
    "longitude": "126.5321209"
  },
  {
    "id": "317",
    "name": "탐돈 제주",
    "category": "음식점",
    "region": "아라일동",
    "address": "제주 제주시 인다13길 1-6 1층",
    "description": "18시 이전 방문 시 5% 할인 (단체 4인 이상 x )",
    "image": "",
    "latitude": "33.4727454",
    "longitude": "126.5463709"
  },
  {
    "id": "318",
    "name": "탐라중식당",
    "category": "음식점",
    "region": "시청",
    "address": "제주 제주시 광양13길 24 탐라중식당",
    "description": "테이블 당 음료 1개 제공",
    "image": "",
    "latitude": "33.4995846",
    "longitude": "126.5327522"
  },
  {
    "id": "319",
    "name": "탑 한식뷔페",
    "category": "음식점",
    "region": "서귀포",
    "address": "제주 서귀포시 신서로48번길 52 1층 102호",
    "description": "음료수 제공",
    "image": "",
    "latitude": "33.2528142",
    "longitude": "126.5103962"
  },
  {
    "id": "320",
    "name": "탑돈",
    "category": "음식점",
    "region": "탑동",
    "address": "제주 제주시 관덕로15길 30-1 흑돼지거리탑돈",
    "description": "음료 1인 1개씩 서비스 제공",
    "image": "",
    "latitude": "33.5159264",
    "longitude": "126.5270941"
  },
  {
    "id": "321",
    "name": "탕탕이 1호점",
    "category": "음식점",
    "region": "도남",
    "address": "제주 제주시 도남로7길 46 탕탕이 1호점",
    "description": "테이블당 음료수 2개 or 도시락 1개",
    "image": "",
    "latitude": "33.4959917",
    "longitude": "126.5272081"
  },
  {
    "id": "322",
    "name": "텍사스바베큐",
    "category": "음식점",
    "region": "건입동",
    "address": "제주 제주시 중앙로1길 11 텍사스 바베큐",
    "description": "주류 제외 음식값에서 15% 할인 적용",
    "image": "",
    "latitude": "33.5163876",
    "longitude": "126.5259829"
  },
  {
    "id": "323",
    "name": "토끼와거북이",
    "category": "음식점",
    "region": "용담삼동",
    "address": "제주 제주시 서해안로 498-6 토끼와거북이",
    "description": "10% 할인",
    "image": "",
    "latitude": "33.5188204",
    "longitude": "126.4921734"
  },
  {
    "id": "324",
    "name": "통근막창 순대국밥",
    "category": "음식점",
    "region": "용담",
    "address": "제주 제주시 성화로 23",
    "description": "테이블 당 음료수 한 개",
    "image": "",
    "latitude": "33.5119572",
    "longitude": "126.5052891"
  },
  {
    "id": "325",
    "name": "통시돈",
    "category": "음식점",
    "region": "일도1동",
    "address": "제주 제주시 신산로 26",
    "description": "음료 증정 및 서비스 홍어",
    "image": "",
    "latitude": "33.5109173",
    "longitude": "126.5318029"
  },
  {
    "id": "326",
    "name": "투다리 대학사로",
    "category": "음식점",
    "region": "시청",
    "address": "제주 제주시 신성로13길 16-1 1~2층",
    "description": "현금 5% 할인",
    "image": "",
    "latitude": "33.4986224",
    "longitude": "126.5294078"
  },
  {
    "id": "327",
    "name": "평민닭발 연동점",
    "category": "음식점",
    "region": "연동",
    "address": "제주 성신로1길 21",
    "description": "방문시 음료수 1캔 서비스",
    "image": "",
    "latitude": "33.4918512",
    "longitude": "126.4877242"
  },
  {
    "id": "328",
    "name": "포도원 흑돼지",
    "category": "음식점",
    "region": "연동",
    "address": "제주 제주시 수목원길 51 포도원흑돼지",
    "description": "음료수 및 된장찌개 1개 서비스",
    "image": "",
    "latitude": "33.4699136",
    "longitude": "126.4901764"
  },
  {
    "id": "329",
    "name": "풍채",
    "category": "음식점",
    "region": "시청",
    "address": "제주 제주시 광양13길 6-5",
    "description": "10% 할인",
    "image": "",
    "latitude": "33.4985071",
    "longitude": "126.5315845"
  },
  {
    "id": "330",
    "name": "하영칼국수 애월본점",
    "category": "음식점",
    "region": "애월",
    "address": "제주 제주시 애월읍 구엄길 3 하영칼국수",
    "description": "2인 이상 음료 1개 서비스",
    "image": "",
    "latitude": "33.4747038",
    "longitude": "126.3756251"
  },
  {
    "id": "331",
    "name": "한라돈까스",
    "category": "음식점",
    "region": "탑동",
    "address": "제주 제주시 탑동로 27 한라돈까스",
    "description": "제주대학교 재학생에게 2인 이하이면 음료 추가제공 3인 이상이면 사이드메뉴 제공",
    "image": "",
    "latitude": "33.517353",
    "longitude": "126.5217888"
  },
  {
    "id": "332",
    "name": "한양고깃집 제주아라점",
    "category": "음식점",
    "region": "도남",
    "address": "제주 제주시 도남로 199 1층",
    "description": "사이드메뉴(주류 포함) 1개",
    "image": "",
    "latitude": "33.4851196",
    "longitude": "126.5354354"
  },
  {
    "id": "333",
    "name": "함덕주막",
    "category": "음식점",
    "region": "함덕",
    "address": "제주 제주시 조천읍 함덕로 20 1층",
    "description": "음료 1병 무료 제공",
    "image": "",
    "latitude": "33.5416445",
    "longitude": "126.6730308"
  },
  {
    "id": "334",
    "name": "함덕흑돼지 길목",
    "category": "음식점",
    "region": "함덕",
    "address": "제주 제주시 조천읍 신북로 584-6",
    "description": "음료 무료 제공",
    "image": "",
    "latitude": "33.5395484",
    "longitude": "126.6716461"
  },
  {
    "id": "335",
    "name": "함돌",
    "category": "음식점",
    "region": "함덕",
    "address": "제주 제주시 조천읍 함덕10길 6 1층",
    "description": "메인메뉴 주문시 유부초밥 1피스씩 제공",
    "image": "",
    "latitude": "33.5417277",
    "longitude": "126.6640425"
  },
  {
    "id": "336",
    "name": "해산물 포차",
    "category": "음식점",
    "region": "시청",
    "address": "제주 제주시 서광로32길 23",
    "description": "테이블당 음료 하나, 라면사리 무한 제공",
    "image": "",
    "latitude": "33.4986034",
    "longitude": "126.5291569"
  },
  {
    "id": "337",
    "name": "행복한족발",
    "category": "음식점",
    "region": "이도이동",
    "address": "제주 제주시 신성로 110",
    "description": "음주 시 : 미리 현금결제 의사 있을 시 결제금액의 5% 할인 및 순대국 서비스 + 비음주 시 : 2인 기준 원하는 탄산 음료 1개 제공",
    "image": "",
    "latitude": "33.4971081",
    "longitude": "126.5305373"
  },
  {
    "id": "338",
    "name": "현스낵상점",
    "category": "음식점",
    "region": "노형",
    "address": "제주 제주시 다랑곶길 26-1 1층",
    "description": "리뷰 해주면 만두 서비스 / 네이버 예약 주문 시 음료 서비스",
    "image": "",
    "latitude": "33.4882796",
    "longitude": "126.4807419"
  },
  {
    "id": "339",
    "name": "혜자 이모네",
    "category": "음식점",
    "region": "노형",
    "address": "제주 제주시 다랑곶길 7 1층 혜자이모네",
    "description": "학생 인증시 음료수 제공",
    "image": "",
    "latitude": "33.48727710000001",
    "longitude": "126.4791259"
  },
  {
    "id": "340",
    "name": "호맥 아라점",
    "category": "음식점",
    "region": "아라일동",
    "address": "제주 제주시 아란8길 10 1층 호맥 제주아라점",
    "description": "4인 이상 방문 시 아이스크림 제공",
    "image": "",
    "latitude": "33.4735838",
    "longitude": "126.544554"
  },
  {
    "id": "341",
    "name": "홈치",
    "category": "음식점",
    "region": "서귀포",
    "address": "제주 서귀포시 중앙로207번길 4 홈치",
    "description": "제주대 재학중 학생 10% 할인",
    "image": "",
    "latitude": "33.2631799",
    "longitude": "126.5583543"
  },
  {
    "id": "342",
    "name": "화사랑",
    "category": "음식점",
    "region": "시청",
    "address": "제주 제주시 서광로32길 10",
    "description": "10% 할인",
    "image": "",
    "latitude": "33.4996031",
    "longitude": "126.5281439"
  },
  {
    "id": "343",
    "name": "화제집중",
    "category": "음식점",
    "region": "노형",
    "address": "제주 제주시 다랑곶길 19 화제집중",
    "description": "결제금액 10% 할인",
    "image": "",
    "latitude": "33.48801510000001",
    "longitude": "126.4800026"
  },
  {
    "id": "344",
    "name": "황금돼지 등갈비",
    "category": "음식점",
    "region": "노형",
    "address": "제주 제주시 월랑로4길 17 1층황금돼지등갈비",
    "description": "5% 할인(1만원 이내)",
    "image": "",
    "latitude": "33.4887035",
    "longitude": "126.4790161"
  },
  {
    "id": "345",
    "name": "회뜨는 집",
    "category": "음식점",
    "region": "애월",
    "address": "제주 제주시 애월읍 엄수로 8-37",
    "description": "4인 이상 방문 시 서비스 음료 제공",
    "image": "",
    "latitude": "33.473518",
    "longitude": "126.3782015"
  },
  {
    "id": "346",
    "name": "효선떡방",
    "category": "음식점",
    "region": "탑동",
    "address": "제주 제주시 칠성로길 41 1층",
    "description": "만원이상 구매시 랜덤 떡 하나 제공 + 연락 후 방문 원하심",
    "image": "",
    "latitude": "33.5143681",
    "longitude": "126.5272508"
  },
  {
    "id": "347",
    "name": "효퇴국수국밥",
    "category": "음식점",
    "region": "삼도일동",
    "address": "제주 제주시 서사로 122-1",
    "description": "커플세트 주문 시 음료제공",
    "image": "",
    "latitude": "33.5015448",
    "longitude": "126.519608"
  },
  {
    "id": "348",
    "name": "훔쳐온 뒷고기 화북점",
    "category": "음식점",
    "region": "화북",
    "address": "제주 제주시 진동로5길 40 1층",
    "description": "10% 할인",
    "image": "",
    "latitude": "33.5216174",
    "longitude": "126.5671607"
  },
  {
    "id": "349",
    "name": "나우메디의원",
    "category": "의료",
    "region": "아라",
    "address": "제주 제주시 연북로 511 에이플렉스 3층",
    "description": "뷰티시술 정가의 10%(이벤트가 일시, 이벤트가의  5%추가할인)/ 가다실( 자궁경부암 예방접종) 1회접종시 2만원 할인, 3회 접종시 3만원 할인",
    "image": "",
    "latitude": "33.4847778",
    "longitude": "126.5343571"
  },
  {
    "id": "350",
    "name": "덕용한의원",
    "category": "의료",
    "region": "외도",
    "address": "제주시 우정로 15",
    "description": "진료시 한방파스(판매용 5,000원) 증정",
    "image": "",
    "latitude": "33.4915178",
    "longitude": "126.4311582"
  },
  {
    "id": "351",
    "name": "서울삼성이비인후과",
    "category": "의료",
    "region": "서귀포",
    "address": "제주 서귀포시 월드컵로 8 홍은프라자 3층",
    "description": "제주대학교 학생증 확인 시 비급여 진료 항목 할인",
    "image": "",
    "latitude": "33.2490866",
    "longitude": "126.506951"
  },
  {
    "id": "352",
    "name": "힐링치과의원",
    "category": "의료",
    "region": "아라이동",
    "address": "제주 제주시 승천로 75 3층 힐링치과의원",
    "description": "20% 할인 (보험 진료비 별도)",
    "image": "",
    "latitude": "33.49258400000001",
    "longitude": "126.5428767"
  },
  {
    "id": "353",
    "name": "1938 함덕차관",
    "category": "카페/베이커리",
    "region": "함덕",
    "address": "제주 제주시 조천읍 신북로 494 1층",
    "description": "음료 10% 할인",
    "image": "",
    "latitude": "33.5427402",
    "longitude": "126.6626561"
  },
  {
    "id": "354",
    "name": "88로스터즈",
    "category": "카페/베이커리",
    "region": "화북일동",
    "address": "제주 제주시 금산5길 35-1 1층 88Roasters",
    "description": "10% 할인",
    "image": "",
    "latitude": "33.5258498",
    "longitude": "126.5634999"
  },
  {
    "id": "355",
    "name": "Cafe BCD",
    "category": "카페/베이커리",
    "region": "연동",
    "address": "제주 제주시 연북로 90 1층",
    "description": "음료 전메뉴 10% 할인- 디저트제외 /(핸드드립까지 적용가능)",
    "image": "",
    "latitude": "33.4815085",
    "longitude": "126.4908336"
  },
  {
    "id": "356",
    "name": "글러트니커피",
    "category": "카페/베이커리",
    "region": "이도이동",
    "address": "제주 제주시 구남로2길 38 1층 글러트니 커피",
    "description": "10% 할인(홀케이크 및 선물 포장 제외)",
    "image": "",
    "latitude": "33.4865537",
    "longitude": "126.5349458"
  },
  {
    "id": "357",
    "name": "날쌘카페 노형점",
    "category": "카페/베이커리",
    "region": "노형",
    "address": "제주 제주시 다랑곶4길 14 1층",
    "description": "1만원 이상 주문시 10% 할인",
    "image": "",
    "latitude": "33.4880754",
    "longitude": "126.4805569"
  },
  {
    "id": "358",
    "name": "다람쥐곳간 제주노형점",
    "category": "카페/베이커리",
    "region": "노형",
    "address": "제주 제주시 월랑로 3 1층",
    "description": "호두과자, 커피음료 5% 할인",
    "image": "",
    "latitude": "33.4864747",
    "longitude": "126.4784782"
  },
  {
    "id": "359",
    "name": "더 스카이",
    "category": "카페/베이커리",
    "region": "건입동",
    "address": "제주 제주시 임항로 14",
    "description": "10% 할인",
    "image": "",
    "latitude": "33.5163726",
    "longitude": "126.5262563"
  },
  {
    "id": "360",
    "name": "더치앤빈 노형점",
    "category": "카페/베이커리",
    "region": "노형",
    "address": "제주 제주시 노형10길 9 1층",
    "description": "디저트 케이크 금액별 할인 제공",
    "image": "",
    "latitude": "33.4836352",
    "longitude": "126.4783223"
  },
  {
    "id": "361",
    "name": "데이바이데이",
    "category": "카페/베이커리",
    "region": "아라일동",
    "address": "제주 제주시 인다2길 8 1층 DBD데이바이데이",
    "description": "음료 10% 할인",
    "image": "",
    "latitude": "33.4771304",
    "longitude": "126.5497115"
  },
  {
    "id": "362",
    "name": "동글랑 마카롱",
    "category": "카페/베이커리",
    "region": "서귀포",
    "address": "제주 서귀포시 중산간동로 8016-3 동글랑마카롱",
    "description": "마카롱 2만원 이상 구매시 1000원 할인",
    "image": "",
    "latitude": "33.2646569",
    "longitude": "126.5603216"
  },
  {
    "id": "363",
    "name": "동화로소금빵",
    "category": "카페/베이커리",
    "region": "삼화",
    "address": "제주 제주시 동화로1길 49-7 1층",
    "description": "전체금액의 10% 할인",
    "image": "",
    "latitude": "33.5182274",
    "longitude": "126.5772047"
  },
  {
    "id": "364",
    "name": "드롭탑 제주삼성점",
    "category": "카페/베이커리",
    "region": "이도일동",
    "address": "제주 제주시 광양1길 2",
    "description": "음료 10% 할인 (제조음료만 병음료 x)",
    "image": "",
    "latitude": "33.5039949",
    "longitude": "126.5270605"
  },
  {
    "id": "365",
    "name": "디저트39 제주이도점",
    "category": "카페/베이커리",
    "region": "이도이동",
    "address": "제주 제주시 연신로 85",
    "description": "10% 할인",
    "image": "",
    "latitude": "33.4942988",
    "longitude": "126.5491034"
  },
  {
    "id": "366",
    "name": "라스트플라츠커피",
    "category": "카페/베이커리",
    "region": "이도이동",
    "address": "제주 제주시 구남로8길 26 1층",
    "description": "모든음료 10% 할인",
    "image": "",
    "latitude": "33.4897155",
    "longitude": "126.5374586"
  },
  {
    "id": "367",
    "name": "라운드립스",
    "category": "카페/베이커리",
    "region": "노형",
    "address": "제주 제주시 노형1길 8-8 1층 라운드립스",
    "description": "금액 5% 할인",
    "image": "",
    "latitude": "33.4809128",
    "longitude": "126.473867"
  },
  {
    "id": "368",
    "name": "라피스 제주",
    "category": "카페/베이커리",
    "region": "서귀포",
    "address": "제주 서귀포시 홍중로 28-1 라피스 제주",
    "description": "10%할인 (주류 제외)",
    "image": "",
    "latitude": "33.25540650000001",
    "longitude": "126.5583121"
  },
  {
    "id": "369",
    "name": "맥키쉬",
    "category": "카페/베이커리",
    "region": "화북",
    "address": "제주 제주시 진남로 51-1 본 건물 가운데",
    "description": "2만원 이상 구매시 할인",
    "image": "",
    "latitude": "33.5235907",
    "longitude": "126.5656185"
  },
  {
    "id": "370",
    "name": "모찌롱",
    "category": "카페/베이커리",
    "region": "삼도이동",
    "address": "제주 제주시 관덕로6길 12 모찌롱",
    "description": "디저트류 10% 할인",
    "image": "",
    "latitude": "33.5120892",
    "longitude": "126.5219993"
  },
  {
    "id": "371",
    "name": "문화카페시공",
    "category": "카페/베이커리",
    "region": "건입동",
    "address": "제주 제주시 고마로1길 26 2층",
    "description": "음료 10% 할인, 텀블러 1000원 할인 / 중복 할인 가능",
    "image": "",
    "latitude": "33.5129164",
    "longitude": "126.5403822"
  },
  {
    "id": "372",
    "name": "뭉실몽실",
    "category": "카페/베이커리",
    "region": "이도이동",
    "address": "제주 제주시 구남동6길 15 1층",
    "description": "음료 20% 할인 또는 휘낭시에 1개 제공",
    "image": "",
    "latitude": "33.4881924",
    "longitude": "126.5376853"
  },
  {
    "id": "373",
    "name": "밀키",
    "category": "카페/베이커리",
    "region": "노형",
    "address": "제주 제주시 연북로 1 롯데마트제주점 1층",
    "description": "10% 할인",
    "image": "",
    "latitude": "33.4824765",
    "longitude": "126.4814028"
  },
  {
    "id": "374",
    "name": "바다가 한눈에 보이는 타임센트",
    "category": "카페/베이커리",
    "region": "애월",
    "address": "제주 제주시 애월읍 곽지11길 4 2층",
    "description": "20% 할인",
    "image": "",
    "latitude": "33.4532847",
    "longitude": "126.3071787"
  },
  {
    "id": "375",
    "name": "베이커리우빵",
    "category": "카페/베이커리",
    "region": "이도이동",
    "address": "제주 제주시 동고산로 34 1층",
    "description": "10% 할인",
    "image": "",
    "latitude": "33.49886780000001",
    "longitude": "126.5345049"
  },
  {
    "id": "376",
    "name": "베카신",
    "category": "카페/베이커리",
    "region": "조천",
    "address": "제주 제주시 조천읍 우진오름길 144 1층",
    "description": "음료 10%",
    "image": "",
    "latitude": "33.464996",
    "longitude": "126.7101925"
  },
  {
    "id": "377",
    "name": "봄봄 서귀중앙점",
    "category": "카페/베이커리",
    "region": "서귀포",
    "address": "제주 서귀포시 중앙로 65",
    "description": "만원 이상 구매시 톨아메리카노 무료",
    "image": "",
    "latitude": "33.2504941",
    "longitude": "126.5612508"
  },
  {
    "id": "378",
    "name": "빈앤스타",
    "category": "카페/베이커리",
    "region": "서귀포",
    "address": "제주 서귀포시 천제연로232번길 15 1층",
    "description": "10% 할인",
    "image": "",
    "latitude": "33.2503959",
    "longitude": "126.4302387"
  },
  {
    "id": "379",
    "name": "사잍",
    "category": "카페/베이커리",
    "region": "아라일동",
    "address": "제주 제주시 인다14길 28-11 1층101호",
    "description": "핸드드립 메뉴 1,000원 할인",
    "image": "",
    "latitude": "33.4714585",
    "longitude": "126.5483646"
  },
  {
    "id": "380",
    "name": "서귀피안 브레드 베이커스",
    "category": "카페/베이커리",
    "region": "서귀포",
    "address": "제주 서귀포시 보목로64번길 178 1층 보래드 베이커스",
    "description": "10% 할인",
    "image": "",
    "latitude": "33.244432",
    "longitude": "126.5905456"
  },
  {
    "id": "381",
    "name": "설빙 외도일동점",
    "category": "카페/베이커리",
    "region": "외도",
    "address": "제주 제주시 우정로11길 11 2층 202호",
    "description": "설빙류 구매시 10% 할인 제공, 디저트류 제외",
    "image": "",
    "latitude": "33.4879951",
    "longitude": "126.4321584"
  },
  {
    "id": "382",
    "name": "성지오름 에스프레소바",
    "category": "카페/베이커리",
    "region": "일도일동",
    "address": "제주 제주시 성지로 62-1 1층",
    "description": "음료 20% 할인",
    "image": "",
    "latitude": "33.511175",
    "longitude": "126.5300264"
  },
  {
    "id": "383",
    "name": "세미양",
    "category": "카페/베이커리",
    "region": "아라일동",
    "address": "제주 제주시 구산서길 49",
    "description": "전메뉴 15% 할인",
    "image": "",
    "latitude": "33.4805624",
    "longitude": "126.5331657"
  },
  {
    "id": "384",
    "name": "소금빵그레",
    "category": "카페/베이커리",
    "region": "이도이동",
    "address": "제주 제주시 박성내서길 2-5 1층",
    "description": "1,000할인",
    "image": "",
    "latitude": "33.4921863",
    "longitude": "126.5403694"
  },
  {
    "id": "385",
    "name": "슈푸",
    "category": "카페/베이커리",
    "region": "이도일동",
    "address": "제주 제주시 중앙로 93 1층 슈푸",
    "description": "구매금액 10% 할인",
    "image": "",
    "latitude": "33.5099872",
    "longitude": "126.5238936"
  },
  {
    "id": "386",
    "name": "슬며시",
    "category": "카페/베이커리",
    "region": "함덕",
    "address": "제주 제주시 조천읍 평사길 7 5층 카페 슬며시",
    "description": "디저트 제외 음료 20% 할인",
    "image": "",
    "latitude": "33.5433421",
    "longitude": "126.672811"
  },
  {
    "id": "387",
    "name": "아라아라",
    "category": "카페/베이커리",
    "region": "아라일동",
    "address": "제주 제주시 인다15길 50 1층",
    "description": "커피 단체주문 할인",
    "image": "",
    "latitude": "33.4715425",
    "longitude": "126.552087"
  },
  {
    "id": "388",
    "name": "아일랜드팩토리 풍류",
    "category": "카페/베이커리",
    "region": "일도이동",
    "address": "제주 제주시 관덕로8길 31 1층",
    "description": "음료 10% 할인",
    "image": "",
    "latitude": "33.5105191",
    "longitude": "126.5233739"
  },
  {
    "id": "389",
    "name": "아쿠포",
    "category": "카페/베이커리",
    "region": "탑동",
    "address": "제주 제주시 북성로 57 1층",
    "description": "10%할인",
    "image": "",
    "latitude": "33.5154255",
    "longitude": "126.5187889"
  },
  {
    "id": "390",
    "name": "애플망고포레(본점)",
    "category": "카페/베이커리",
    "region": "서귀포",
    "address": "제주 서귀포시 표선면 세성로 40 1층",
    "description": "빙수&케이크류 10% 할인",
    "image": "",
    "latitude": "33.30992880000001",
    "longitude": "126.8047341"
  },
  {
    "id": "391",
    "name": "어반브루잉",
    "category": "카페/베이커리",
    "region": "삼도",
    "address": "제주 제주시 관덕로 16-1 어반브루잉",
    "description": "음료 10% 할인",
    "image": "",
    "latitude": "33.5128726",
    "longitude": "126.5211497"
  },
  {
    "id": "392",
    "name": "억새타르트",
    "category": "카페/베이커리",
    "region": "서귀포",
    "address": "제주 서귀포시 일주동로 8600 억새타르트 서귀포올레시장점",
    "description": "총금액 10%, 만원 이상 구매 시 아메리카노",
    "image": "",
    "latitude": "33.2549219",
    "longitude": "126.5693876"
  },
  {
    "id": "393",
    "name": "에브리블룸",
    "category": "카페/베이커리",
    "region": "일도이동",
    "address": "제주 제주시 동문로 62 1층 에브리블룸",
    "description": "꽃다발 5만원이상 10%할인",
    "image": "",
    "latitude": "33.5132402",
    "longitude": "126.5332692"
  },
  {
    "id": "394",
    "name": "영평나인 카페",
    "category": "카페/베이커리",
    "region": "영평",
    "address": "제주 제주시 영평길 274 1층",
    "description": "제주대 학우 인증 시 10% 할인",
    "image": "",
    "latitude": "33.4778943",
    "longitude": "126.568844"
  },
  {
    "id": "395",
    "name": "오니리크",
    "category": "카페/베이커리",
    "region": "서귀포",
    "address": "제주 서귀포시 홍중로27번길 4 오니리크",
    "description": "2만원 이상 주문시 소금빵 1개 증정",
    "image": "",
    "latitude": "33.2552536",
    "longitude": "126.5575916"
  },
  {
    "id": "396",
    "name": "오멘",
    "category": "카페/베이커리",
    "region": "아라일동",
    "address": "제주 제주시 아란5길 13 1층",
    "description": "아메리카노 500원 할인,아메리카노 제외 모든 음료 1000원 할인(쿠폰사용불가)",
    "image": "",
    "latitude": "33.4754675",
    "longitude": "126.5435889"
  },
  {
    "id": "397",
    "name": "오밀조밀 과자점",
    "category": "카페/베이커리",
    "region": "시청",
    "address": "제주 제주시 고산동산1길 9 1층 오밀조밀과자점",
    "description": "제품 12000원 구매시 음료증정",
    "image": "",
    "latitude": "33.4976472",
    "longitude": "126.5322588"
  },
  {
    "id": "398",
    "name": "오캄커피",
    "category": "카페/베이커리",
    "region": "시청",
    "address": "제주 제주시 광양11길 16 오캄커피",
    "description": "20% 할인",
    "image": "",
    "latitude": "33.499514",
    "longitude": "126.5318488"
  },
  {
    "id": "399",
    "name": "옥림사운즈",
    "category": "카페/베이커리",
    "region": "중앙로",
    "address": "제주 제주시 관덕로15길 7-1 옥림장 더제이드 호텔 1층 옥림사운즈",
    "description": "10% 할인",
    "image": "",
    "latitude": "33.513891",
    "longitude": "126.52674"
  },
  {
    "id": "400",
    "name": "올레커피숍",
    "category": "카페/베이커리",
    "region": "애월",
    "address": "제주 제주시 한림읍 협재리 2992",
    "description": "자전거 무료로 타면 되고 10 % 할인",
    "image": "",
    "latitude": "33.4052773",
    "longitude": "126.2288955"
  },
  {
    "id": "401",
    "name": "옹포정미소",
    "category": "카페/베이커리",
    "region": "애월",
    "address": "제주 제주시 한림읍 한림로 530-1 1층",
    "description": "10% 할인",
    "image": "",
    "latitude": "33.4050507",
    "longitude": "126.2555214"
  },
  {
    "id": "402",
    "name": "와플반트",
    "category": "카페/베이커리",
    "region": "일도이동",
    "address": "제주 제주시 고마로 143 제주시 일도2동 68-8",
    "description": "10% 할인",
    "image": "",
    "latitude": "33.501988",
    "longitude": "126.5432856"
  },
  {
    "id": "403",
    "name": "위더스트래블",
    "category": "카페/베이커리",
    "region": "아라일동",
    "address": "제주 제주시 인다9길 29 1층 위더스, 트래블",
    "description": "매장 방문시 10% 할인",
    "image": "",
    "latitude": "33.4755288",
    "longitude": "126.5486085"
  },
  {
    "id": "404",
    "name": "잇브레드러브",
    "category": "카페/베이커리",
    "region": "이도이동",
    "address": "제주 제주시 고산동산서길 5 1층",
    "description": "10000원 이상 구매 시 10% 할인",
    "image": "",
    "latitude": "33.4945907",
    "longitude": "126.5313295"
  },
  {
    "id": "405",
    "name": "잇츠오케이크",
    "category": "카페/베이커리",
    "region": "노형",
    "address": "제주 제주시 수덕9길 85-2",
    "description": "오송이 케이크, 당일보틀 케이크 10% 할인, 네이버영수증 리뷰시 아메리카노 제공",
    "image": "",
    "latitude": "33.4825688",
    "longitude": "126.4702662"
  },
  {
    "id": "406",
    "name": "제라진 마카롱",
    "category": "카페/베이커리",
    "region": "애월",
    "address": "제주 제주시 애월읍 하귀9길 2 제주모닝시티 117호 제라진마카롱",
    "description": "10% 할인",
    "image": "",
    "latitude": "33.4862324",
    "longitude": "126.4145495"
  },
  {
    "id": "407",
    "name": "제로정류장",
    "category": "카페/베이커리",
    "region": "서귀포",
    "address": "제주 서귀포시 중앙로 50 1층",
    "description": "10% 할인",
    "image": "",
    "latitude": "33.2490589",
    "longitude": "126.5619556"
  },
  {
    "id": "408",
    "name": "제주곱들락과일모찌",
    "category": "카페/베이커리",
    "region": "삼화",
    "address": "제주 제주시 화삼로 89 상가동 105호 부영8차 상가 버스정류장",
    "description": "만원 이상 구매시 음료제공(커피)",
    "image": "",
    "latitude": "33.5150833",
    "longitude": "126.5822919"
  },
  {
    "id": "409",
    "name": "제주트립티산지",
    "category": "카페/베이커리",
    "region": "탑동",
    "address": "제주 제주시 관덕로17길 29 산지천갤러리 1층",
    "description": "음료 15% 할인",
    "image": "",
    "latitude": "33.5151351",
    "longitude": "126.5284001"
  },
  {
    "id": "410",
    "name": "좋수다",
    "category": "카페/베이커리",
    "region": "일도이동",
    "address": "제주 제주시 고마로11길 45 1층",
    "description": "20% 할인 + 리뷰이벤트 시 미니 요거트볼",
    "image": "",
    "latitude": "33.5124944",
    "longitude": "126.5390958"
  },
  {
    "id": "411",
    "name": "주식회사 투모로우",
    "category": "카페/베이커리",
    "region": "서귀포",
    "address": "제주 서귀포시 보목포로 201 투모로우",
    "description": "10% 할인",
    "image": "",
    "latitude": "33.2458754",
    "longitude": "126.6187087"
  },
  {
    "id": "412",
    "name": "청연 디저트",
    "category": "카페/베이커리",
    "region": "이도이동",
    "address": "제주 제주시 도남로 189 1층 청연디저트카페",
    "description": "음료 5% 할인 (네이버리뷰작성시 10% 할인적용)",
    "image": "",
    "latitude": "33.4856458",
    "longitude": "126.534543"
  },
  {
    "id": "413",
    "name": "청자다방 서귀포1호점",
    "category": "카페/베이커리",
    "region": "서귀포",
    "address": "서귀포시 신서로48번길 20-10",
    "description": "2만원 이상 구매 시 5% 할인",
    "image": "",
    "latitude": "33.2530637",
    "longitude": "126.5068681"
  },
  {
    "id": "414",
    "name": "촐리케이크",
    "category": "카페/베이커리",
    "region": "이도이동",
    "address": "제주 제주시 신설로2길 1-1 촐리케이크",
    "description": "매장 이용시 10%할인/ 제작 케이크 40,000원 이상이면 2,000원 할인",
    "image": "",
    "latitude": "33.4940094",
    "longitude": "126.5420219"
  },
  {
    "id": "415",
    "name": "카페 말로",
    "category": "카페/베이커리",
    "region": "조천",
    "address": "제주 제주시 조천읍 남조로 1785-12",
    "description": "음료 10% 할인(디저트 X), 목장 다녀오면 음료 30% 할인",
    "image": "",
    "latitude": "33.427439",
    "longitude": "126.6722667"
  },
  {
    "id": "416",
    "name": "카페 몽몽",
    "category": "카페/베이커리",
    "region": "노형",
    "address": "제주 제주시 월광로 145-8 1층 카페몽몽",
    "description": "전 메뉴 10% 할인",
    "image": "",
    "latitude": "33.4924504",
    "longitude": "126.473379"
  },
  {
    "id": "417",
    "name": "카페 산책",
    "category": "카페/베이커리",
    "region": "애월",
    "address": "제주 제주시 애월읍 하가로 147 1층",
    "description": "10% 할인",
    "image": "",
    "latitude": "33.4567345",
    "longitude": "126.3494267"
  },
  {
    "id": "418",
    "name": "카페라엘라",
    "category": "카페/베이커리",
    "region": "외도",
    "address": "제주 제주시 우정로15길 12 1층 105호",
    "description": "전 품목 10% 할인 (두쫀쿠 제외 + 방문시에만)",
    "image": "",
    "latitude": "33.4850004",
    "longitude": "126.4329961"
  },
  {
    "id": "419",
    "name": "카페멜록",
    "category": "카페/베이커리",
    "region": "애월",
    "address": "제주 제주시 애월읍 애월해안로 251 카페멜록",
    "description": "모든메뉴 2천원 할인",
    "image": "",
    "latitude": "33.4672021",
    "longitude": "126.3386354"
  },
  {
    "id": "420",
    "name": "카페본",
    "category": "카페/베이커리",
    "region": "서귀포",
    "address": "제주 서귀포시 김정문화로 39 1층, 103호",
    "description": "학생증 제시시 5% 할인적용",
    "image": "",
    "latitude": "33.2516573",
    "longitude": "126.5089879"
  },
  {
    "id": "421",
    "name": "카페블레스",
    "category": "카페/베이커리",
    "region": "시청",
    "address": "제주 제주시 서광로 297 1층",
    "description": "음료 주문시 쿠키 제공",
    "image": "",
    "latitude": "33.50075",
    "longitude": "126.5281949"
  },
  {
    "id": "422",
    "name": "카페오믈락",
    "category": "카페/베이커리",
    "region": "도두",
    "address": "제주 제주시 서해안로 42 카페오믈락",
    "description": "모든 메뉴 10% 할인",
    "image": "",
    "latitude": "33.5012533",
    "longitude": "126.4558729"
  },
  {
    "id": "423",
    "name": "커피스트릿16",
    "category": "카페/베이커리",
    "region": "용담이동",
    "address": "제주 제주시 용두암길 16 1층",
    "description": "전 메뉴 10% 할인",
    "image": "",
    "latitude": "33.5145005",
    "longitude": "126.5122808"
  },
  {
    "id": "424",
    "name": "커피콜라주",
    "category": "카페/베이커리",
    "region": "노형",
    "address": "제주 제주시 노형3길 8 1층",
    "description": "커피 음료 10% 할인",
    "image": "",
    "latitude": "33.481998",
    "longitude": "126.4747691"
  },
  {
    "id": "425",
    "name": "커피쿡",
    "category": "카페/베이커리",
    "region": "서귀포",
    "address": "제주 서귀포시 동홍북로 10 1층",
    "description": "현금 결제 시 10% 할인",
    "image": "",
    "latitude": "33.2590788",
    "longitude": "126.5693488"
  },
  {
    "id": "426",
    "name": "커피프린스",
    "category": "카페/베이커리",
    "region": "시청",
    "address": "제주 제주시 서광로29길 2",
    "description": "모든 메뉴 10%할인",
    "image": "",
    "latitude": "33.50066",
    "longitude": "126.5268216"
  },
  {
    "id": "427",
    "name": "컴플렉스",
    "category": "카페/베이커리",
    "region": "중앙로",
    "address": "제주 제주시 중앙로14길 4 1층",
    "description": "음료메뉴 10% 할인",
    "image": "",
    "latitude": "33.5114087",
    "longitude": "126.5241258"
  },
  {
    "id": "428",
    "name": "콕스커피 노형점",
    "category": "카페/베이커리",
    "region": "노형",
    "address": "제주 제주시 원노형3길 6 1층",
    "description": "10시 이후 음료 10% 할인",
    "image": "",
    "latitude": "33.4867205",
    "longitude": "126.4853392"
  },
  {
    "id": "429",
    "name": "쿠키키",
    "category": "카페/베이커리",
    "region": "애월",
    "address": "제주 제주시 애월읍 하귀로 85",
    "description": "만원 이상 구매시 서비스 쿠키 제공",
    "image": "",
    "latitude": "33.4821453",
    "longitude": "126.4055467"
  },
  {
    "id": "430",
    "name": "키라라",
    "category": "카페/베이커리",
    "region": "아라이동",
    "address": "제주 제주시 신설로6길 8 1층",
    "description": "음료 및 조각케이크/구룸과자 10% 할인(홀케이크 제외)",
    "image": "",
    "latitude": "33.493469",
    "longitude": "126.5426628"
  },
  {
    "id": "431",
    "name": "키미디",
    "category": "카페/베이커리",
    "region": "삼도",
    "address": "제주 제주시 관덕로8길 38 1,2,3층",
    "description": "음료 10% 할인",
    "image": "",
    "latitude": "33.5101011",
    "longitude": "126.5233509"
  },
  {
    "id": "432",
    "name": "투루 베이커리",
    "category": "카페/베이커리",
    "region": "이도이동",
    "address": "제주 제주시 이도공원길 8 1층",
    "description": "만원 이상 구매 시 10% 할인",
    "image": "",
    "latitude": "33.4964563",
    "longitude": "126.5425196"
  },
  {
    "id": "433",
    "name": "트위스터 윗",
    "category": "카페/베이커리",
    "region": "이도이동",
    "address": "제주 제주시 고산동산1길 11 1층",
    "description": "매장 방문시 10% DC , 5개구매 시 1개 서비스",
    "image": "",
    "latitude": "33.4977616",
    "longitude": "126.5324304"
  },
  {
    "id": "434",
    "name": "페이지카페",
    "category": "카페/베이커리",
    "region": "용담",
    "address": "제주 제주시 용담로 70 1층",
    "description": "음료만 10% 적립 및 추가 10% 할인",
    "image": "",
    "latitude": "33.51251269999999",
    "longitude": "126.5102079"
  },
  {
    "id": "435",
    "name": "퐁당칠리핫도그 앤 커피",
    "category": "카페/베이커리",
    "region": "화북",
    "address": "제주 제주시 일주동로 183 1층",
    "description": "총 5% 할인(세트 할인 중복 제외)",
    "image": "",
    "latitude": "33.5190637",
    "longitude": "126.5650975"
  },
  {
    "id": "436",
    "name": "프루피",
    "category": "카페/베이커리",
    "region": "서귀포",
    "address": "제주 서귀포시 중정로61번길 20 2호실",
    "description": "전체금액의 10프로",
    "image": "",
    "latitude": "33.2495636",
    "longitude": "126.5630367"
  },
  {
    "id": "437",
    "name": "플레르",
    "category": "카페/베이커리",
    "region": "아라일동",
    "address": "제주 제주시 구산로 22-7 102호",
    "description": "꽃 + 케이크 10% 할인",
    "image": "",
    "latitude": "33.4830715",
    "longitude": "126.5369065"
  },
  {
    "id": "438",
    "name": "피노스커피",
    "category": "카페/베이커리",
    "region": "노형",
    "address": "제주 제주시 월랑로8길 1 아란야플라자 1층 101호",
    "description": "학생증 지참 시 10% 할인",
    "image": "",
    "latitude": "33.4887906",
    "longitude": "126.4765748"
  },
  {
    "id": "439",
    "name": "하이리보",
    "category": "카페/베이커리",
    "region": "삼화",
    "address": "제주 제주시 도련동길 19",
    "description": "애견 입장료 40% 할인",
    "image": "",
    "latitude": "33.5087515",
    "longitude": "126.59202"
  },
  {
    "id": "440",
    "name": "한라산 1950",
    "category": "카페/베이커리",
    "region": "도두",
    "address": "제주 제주시 다호5길 10 2층",
    "description": "동문샵점 메뉴 10% 할인",
    "image": "",
    "latitude": "33.5017294",
    "longitude": "126.4904261"
  },
  {
    "id": "441",
    "name": "흘 heul",
    "category": "카페/베이커리",
    "region": "조천",
    "address": "제주 제주시 조천읍 선진길 88 가동 HEUL",
    "description": "음료 전메뉴 10% 할인",
    "image": "",
    "latitude": "33.4580988",
    "longitude": "126.7112543"
  },
  {
    "id": "442",
    "name": "HAND",
    "category": "/뷰티/패션",
    "region": "도남",
    "address": "제주 제주시 신성로 82-8 1층",
    "description": "1장당 10%할인 20장 이상 구매시 추가 할인",
    "image": "",
    "latitude": "33.4950464",
    "longitude": "126.5281102"
  },
  {
    "id": "443",
    "name": "눈별",
    "category": "/뷰티/패션",
    "region": "노형",
    "address": "제주 제주시 노형13길 7 2층",
    "description": "10% 할인",
    "image": "",
    "latitude": "33.4831854",
    "longitude": "126.4788696"
  },
  {
    "id": "444",
    "name": "더맨신사정장 강남한복",
    "category": "/뷰티/패션",
    "region": "도남",
    "address": "제주 제주시 연삼로 361",
    "description": "정장 한 벌 구매 및 대여 시 10% 할인",
    "image": "",
    "latitude": "33.493185",
    "longitude": "126.5307348"
  },
  {
    "id": "445",
    "name": "또제",
    "category": "카페/ 베이커리",
    "region": "일동일동",
    "address": "제주 제주시 동문로2길 27-3",
    "description": "밀크티 무료제공",
    "image": "",
    "latitude": "33.5108358",
    "longitude": "126.5267375"
  },
  {
    "id": "446",
    "name": "루둔(시청)",
    "category": "/뷰티/패션",
    "region": "시청",
    "address": "제주 제주시 서광로32길 42 1층",
    "description": "카드 3% 현금/계좌이체 5%\n10만원 이상 구매시 악세사리 증정",
    "image": "",
    "latitude": "33.4972262",
    "longitude": "126.5298487"
  },
  {
    "id": "447",
    "name": "리메인",
    "category": "/뷰티/패션",
    "region": "아라일동",
    "address": "제주 제주시 아란5길 18 제주 제주시 아란5길 18",
    "description": "펌,염색 여성 단발 15% 긴머리20% 할인\n남자는 아이롱펌 16만원 -> 14만원 (수석 디자이너 예림 선생님 단독 이벤트)",
    "image": "",
    "latitude": "33.4751054",
    "longitude": "126.5435652"
  },
  {
    "id": "448",
    "name": "메이드엠 헤어 제주 아라점",
    "category": "/뷰티/패션",
    "region": "아라일동",
    "address": "제주 제주시 중앙로 501 102호 메이드엠",
    "description": "자체 할인에 추가 10% 할인",
    "image": "",
    "latitude": "33.4784634",
    "longitude": "126.5440909"
  },
  {
    "id": "449",
    "name": "불등불닭",
    "category": "음식",
    "region": "중앙로",
    "address": "제주 제주시 남성로 165 1층 불등불닭",
    "description": "10% 할인",
    "image": "",
    "latitude": "33.5095164",
    "longitude": "126.5228463"
  },
  {
    "id": "450",
    "name": "임씨네 치킨",
    "category": "(실시간 제휴)",
    "region": "이도일동",
    "address": "제주 제주시 광양1길 18 1층",
    "description": "포장시 5,000원 할인",
    "image": "",
    "latitude": "33.5037069",
    "longitude": "126.5277372"
  },
  {
    "id": "451",
    "name": "추나헤어",
    "category": "/뷰티/패션",
    "region": "노형권",
    "address": "제주 제주시 노형6길 18",
    "description": "5% 할인",
    "image": "",
    "latitude": "33.481009",
    "longitude": "126.4777683"
  },
  {
    "id": "452",
    "name": "카페몽몽",
    "category": "카페",
    "region": "노형",
    "address": "제주 제주시 월광로 145-8 1층 카페몽몽",
    "description": "반려견 입장료 무료",
    "image": "",
    "latitude": "33.4924504",
    "longitude": "126.473379"
  },
  {
    "id": "453",
    "name": "코코컬처클럽 골든코스트",
    "category": "카페/ 베이커리",
    "region": "성산읍",
    "address": "제주 서귀포시 성산읍 환해장성로 201 코코컬처클럽 골든코스트",
    "description": "메뉴 10% 할인 (굿즈 제외)",
    "image": "",
    "latitude": "33.3870198",
    "longitude": "126.8882506"
  },
  {
    "id": "454",
    "name": "해녀잠수촌 공항본점",
    "category": "",
    "region": "용담삼동",
    "address": "제주 제주시 서해안로 498 1층 해녀잠수촌",
    "description": "10% 할인",
    "image": "",
    "latitude": "33.5189764",
    "longitude": "126.49214"
  }
]
